names,Price,Area,Unit Type,Starting Price,Maximum Price,lat,lon,geometry
42 Queens Square bangalore,78 L -1.56 Cr,1691-2170 sq.ft,3 BHK Apartment,78 L ,1.56 Cr,12.8525569,77.7825326,POINT (77.7825326 12.8525569)
A Peace Paramount bangalore,41.78 L -44.72 L,1100-1177 sq.ft,2 BHK Apartment,41.78 L ,44.72 L,13.1141821,77.56665579999999,POINT (77.56665579999999 13.1141821)
AR Splendor Park bangalore,40.11 L -43.85 L,1146-1253 sq.ft,2 BHK Apartment,40.11 L ,43.85 L,13.042217,77.6552918,POINT (77.6552918 13.042217)
ARS Bhavisha bangalore,51 L -65 L,1000-1260 sq.ft,2 BHK Apartment,51 L ,65 L,12.8596605,77.7656243,POINT (77.7656243 12.8596605)
Aakruthi Aura bangalore,36 L -46.85 L,1115-1129 sq.ft,2 BHK Apartment,36 L ,46.85 L,12.9650697,77.75108770000001,POINT (77.75108770000001 12.9650697)
Aakruti Amity  bangalore,1.07 Cr -1.14 Cr,1335-1455 sq.ft,2 BHK Apartment,1.07 Cr ,1.14 Cr,12.8340825,77.6950016,POINT (77.6950016 12.8340825)
Aashrayaa Eternia bangalore,76.87 L -1.15 Cr,1156-1447 sq.ft,2 BHK Apartment,76.87 L ,1.15 Cr,12.8842757,77.62795570000002,POINT (77.62795570000002 12.8842757)
Aban Desire bangalore,59.98 L -72.33 L,954-1162 sq.ft,2 BHK Apartment,59.98 L ,72.33 L,12.8281273,77.7766475,POINT (77.7766475 12.8281273)
Adarsh Citrine bangalore,36.10 L,690 sq.ft,1 BHK Apartment,36.10 L,0,12.8954456,77.5884526,POINT (77.5884526 12.8954456)
Adarsh Palm Meadows bangalore,3.48 Cr -4.64 Cr,1800-2400 sq.ft,3 BHK Apartment,3.48 Cr ,4.64 Cr,12.9574201,77.74059419999999,POINT (77.74059419999999 12.9574201)
Adarsh Palm Retreat Condominiums bangalore,56.77 L -62.98 L,1622 sq.ft,3 BHK Villa,56.77 L ,62.98 L,12.9197319,77.6901979,POINT (77.6901979 12.9197319)
Adarsh Palm Retreat Mayberry bangalore,59 L -62.75 L,1203 sq.ft,2 BHK Apartment,59 L ,62.75 L,12.9164497,77.6942608,POINT (77.6942608 12.9164497)
Adarsh Palm Retreat bangalore,76.83 L -82.11 L,1354-1447 sq.ft,2.5 BHK Apartment,76.83 L ,82.11 L,12.9234947,77.6851069,POINT (77.68510689999999 12.9234947)
Adarsh Pinecourt bangalore,34.90 L -45.04 L,895-1155 sq.ft,2 BHK Apartment,34.90 L ,45.04 L,13.0837992,77.66192149999999,POINT (77.66192149999999 13.0837992)
Adarsh Premia bangalore,33.40 L -46.70 L,980-1110 sq.ft,2 BHK Apartment,33.40 L ,46.70 L,12.920315,77.5616,POINT (77.5616 12.920315)
Adarsh Tranqville bangalore,2.69 Cr -3.62 Cr,2344-2386 sq.ft,3 BHK Apartment,2.69 Cr ,3.62 Cr,13.0779618,77.6533609,POINT (77.6533609 13.0779618)
Adiga 100 trees bangalore,70.74 L -76 L,1199-1256 sq.ft,2 BHK Apartment,70.74 L ,76 L,12.9185092,77.5940323,POINT (77.59403229999999 12.9185092)
Adithya Garden  bangalore,98 L -1.10 Cr,1195-1200 sq.ft,2 BHK Apartment,98 L ,1.10 Cr,12.8645579,77.6594665,POINT (77.65946649999999 12.8645579)
Adithya Tranquil bangalore,74.71 L -1.09 Cr,1232-1264 sq.ft,2 BHK Apartment,74.71 L ,1.09 Cr,13.1207272,77.60800720000002,POINT (77.60800720000002 13.1207272)
Aditi Tropica bangalore,63 L -86 L,1168-1272 sq.ft,2 BHK Apartment,63 L ,86 L,12.919196,77.668466,POINT (77.668466 12.919196)
Aditya Palm Grove bangalore,55 L,888 sq.ft,1 BHK Apartment,55 L,0,12.9665264,77.6139089,POINT (77.6139089 12.9665264)
Advaitha Aksha bangalore,3.90 K -59.73 L,1085-1230 sq.ft,2 BHK Apartment,3.90 K ,59.73 L,12.9262427,77.6405757,POINT (77.6405757 12.9262427)
Ahad Euphoria bangalore,59.49 L -61.41 L,1165-1206 sq.ft,2 BHK Apartment,59.49 L ,61.41 L,12.8964286,77.70806759999999,POINT (77.70806759999999 12.8964286)
Aishwarya Splendour bangalore,56.43 L -62.32 L,1254-1385 sq.ft,2 BHK Apartment,56.43 L ,62.32 L,12.8964934,77.58584549999999,POINT (77.58584549999999 12.8964934)
Ajantha Prime bangalore,50.44 L,1220 sq.ft,2 BHK Apartment,50.44 L,0,12.862021,77.6623552,POINT (77.66235519999999 12.862021)
Ajmera Annex bangalore,95.16 L -96.20 L,1830-1850 sq.ft,3 BHK Villa,95.16 L ,96.20 L,12.8420581,77.6463682,POINT (77.6463682 12.8420581)
Ajmera Lugaano bangalore,51.50 L -64.80 L,1065-1220 sq.ft,2 BHK Apartment,51.50 L ,64.80 L,13.1097661,77.5587431,POINT (77.5587431 13.1097661)
Ajmera Nucleus bangalore,26.23 L -38 L,595-610 sq.ft,1 BHK Apartment,26.23 L ,38 L,12.851016,77.6807465,POINT (77.6807465 12.851016)
Akme Harmony bangalore,95 L -95.62 L,1250 sq.ft,2 BHK Apartment,95 L ,95.62 L,12.9224347,77.67112929999999,POINT (77.67112929999999 12.9224347)
Akruthi Spring Woods bangalore,45 L,900 sq.ft,2 BHK Villa,45 L,0,12.985451,77.4864,POINT (77.4864 12.985451)
Alembic Urban Forest bangalore,65.07 L -96 L,1314 sq.ft,2 BHK Apartment,65.07 L ,96 L,12.9853338,77.76096770000001,POINT (77.76096770000001 12.9853338)
Alpine Fiesta bangalore,74 L -90.24 L,1263-1352 sq.ft,2 BHK Apartment,74 L ,90.24 L,12.996111,77.72033210000001,POINT (77.72033210000001 12.996111)
Alpine Viva 2 bangalore,2.69 Cr -3.82 Cr,3850-4900 sq.ft,4 BHK Villa,2.69 Cr ,3.82 Cr,13.0143196,77.7609495,POINT (77.7609495 13.0143196)
Altius Ardour bangalore,24.40 L,610 sq.ft,1 BHK Apartment,24.40 L,0,12.8354267,77.76861389999999,POINT (77.76861389999999 12.8354267)
Ambiience Aamby City bangalore,1.84 Cr -3 Cr,2666-3235 sq.ft,3 BHK Apartment,1.84 Cr ,3 Cr,13.1319198,77.81879239999999,POINT (77.81879239999999 13.1319198)
Amigo Estella bangalore,35 L -37.06 L,719-758 sq.ft,1 BHK Apartment,35 L ,37.06 L,13.0608351,77.6330036,POINT (77.6330036 13.0608351)
Amrutha Value bangalore,35.91 L -51 L,945-1206 sq.ft,2 BHK Apartment,35.91 L ,51 L,12.9706326,77.7367999,POINT (77.73679989999999 12.9706326)
Aparna Elina bangalore,67.27 L,1035 sq.ft,2 BHK Apartment,67.27 L,0,13.0200021,77.5518105,POINT (77.5518105 13.0200021)
Apex Crystal bangalore,44.85 L -45.23 L,1165-1175 sq.ft,2 BHK Apartment,44.85 L ,45.23 L,12.9715987,77.5945627,POINT (77.5945627 12.9715987)
Aratt Amora bangalore,53.37 L -57.28 L,1186-1273 sq.ft,2 BHK Apartment,53.37 L ,57.28 L,12.7587473,77.6711502,POINT (77.6711502 12.7587473)
Aratt Cityscapes Apartment bangalore,57 L -63.20 L,1352 sq.ft,2 BHK Apartment,57 L ,63.20 L,13.0611983,77.75757899999999,POINT (77.75757899999999 13.0611983)
Aratt Cityscapes Villa bangalore,77 L -94 L,1385-1425 sq.ft,3 BHK Apartment,77 L ,94 L,13.0611983,77.75757899999999,POINT (77.75757899999999 13.0611983)
Aratt Milano bangalore,1 Cr -1.15 Cr,1296-1398 sq.ft,2 BHK Apartment,1 Cr ,1.15 Cr,12.8677967,77.6978713,POINT (77.6978713 12.8677967)
Aratt Premier bangalore,73 L,1039 sq.ft,2 BHK Apartment,73 L,0,12.9813098,77.7095717,POINT (77.7095717 12.9813098)
Aratt Rolling Whites bangalore,54.45 L -57.37 L,1210-1275 sq.ft,2 BHK Apartment,54.45 L ,57.37 L,12.7481938,77.6837066,POINT (77.68370659999999 12.7481938)
Aratt Vivera bangalore,90.63 L -1.78 Cr,1920-2880 sq.ft,3 BHK Villa,90.63 L ,1.78 Cr,12.8687962,77.6258232,POINT (77.6258232 12.8687962)
Arge Helios bangalore,81 L -1.07 Cr,1308-1469 sq.ft,2 BHK Apartment,81 L ,1.07 Cr,13.0654977,77.65153649999999,POINT (77.65153649999999 13.0654977)
Arge Urban Bloom bangalore,59.39 L -62.81 L,1181-1249 sq.ft,2 BHK Apartment,59.39 L ,62.81 L,13.0259697,77.5329519,POINT (77.5329519 13.0259697)
Arna Meadows bangalore,50.15 L -55.25 L,1180-1300 sq.ft,2 BHK Apartment,50.15 L ,55.25 L,12.8627811,77.6030904,POINT (77.6030904 12.8627811)
Arsis Green Hills bangalore,64.50 L -77.92 L,1330-1335 sq.ft,2 BHK Apartment,64.50 L ,77.92 L,13.019059,77.707093,POINT (77.707093 13.019059)
Artha Emprasa Startup City bangalore,50 L -85 L,1103-1311 sq.ft,2 BHK Apartment,50 L ,85 L,13.119653,77.802262,POINT (77.802262 13.119653)
Artha Reviera bangalore,1.21 Cr -1.24 Cr,2650-2700 sq.ft,4 BHK Villa,1.21 Cr ,1.24 Cr,12.7697881,77.6981747,POINT (77.6981747 12.7697881)
Arvind Oasis bangalore,19.22 L -32 L,720-1090 sq.ft,2 BHK Apartment,19.22 L ,32 L,13.046621,77.50250799999999,POINT (77.50250799999999 13.046621)
Arvind Skylands bangalore,29 L -34.39 L,526 sq.ft,1 BHK Apartment,29 L ,34.39 L,13.0892362,77.6014,POINT (77.6014 13.0892362)
Arvind Sporcia bangalore,37.39 L -42.34 L,935-1059 sq.ft,2 BHK Apartment,37.39 L ,42.34 L,13.0624992,77.62152929999999,POINT (77.62152929999999 13.0624992)
Arya Hamsa Grande bangalore,62 L -84.56 L,1245-1363 sq.ft,2 BHK Apartment,62 L ,84.56 L,12.8595081,77.574026,POINT (77.574026 12.8595081)
Arya Hamsa bangalore,52.26 L -65.52 L,1005-1260 sq.ft,2 BHK Apartment,52.26 L ,65.52 L,12.8599997,77.5745195,POINT (77.57451949999999 12.8599997)
Aryan Golden Arena bangalore,27.35 L,829 sq.ft,2 BHK Apartment,27.35 L,0,12.806845,77.7825336,POINT (77.78253359999999 12.806845)
Asrithas Grand Living bangalore,33.04 L -50 L,1066-1100 sq.ft,2 BHK Apartment,33.04 L ,50 L,12.938386,77.617803,POINT (77.61780299999999 12.938386)
Asset Aura bangalore,96 L -1.19 Cr,1297-1418 sq.ft,2 BHK Apartment,96 L ,1.19 Cr,12.921249,77.72203800000001,POINT (77.72203800000001 12.921249)
Assetz 63 Degree East bangalore,42 L,685 sq.ft,0.5 BHK Apartment,42 L,0,12.8853283,77.7047401,POINT (77.7047401 12.8853283)
Assetz Earth & Essence bangalore,2.36 Cr -2.52 Cr,2721-2877 sq.ft,3 BHK RowHouse,2.36 Cr ,2.52 Cr,13.1480106,77.64160230000002,POINT (77.64160230000002 13.1480106)
Assetz East Point bangalore,5.50 L -49 L,1070-1100 sq.ft,2 BHK Apartment,5.50 L ,49 L,12.9212968,77.69453949999999,POINT (77.69453949999999 12.9212968)
Assetz Leaves & Lives bangalore,2.15 Cr,2617 sq.ft,3 BHK Apartment,2.15 Cr,0,12.8864479,77.70514709999999,POINT (77.70514709999999 12.8864479)
Assetz Lifestyle bangalore,44 L -85 L,1270 sq.ft,1 BHK Apartment,44 L ,85 L,12.8853283,77.7047401,POINT (77.7047401 12.8853283)
Assetz Marq bangalore,56.18 L -88 L,1222-1277 sq.ft,2 BHK Apartment,56.18 L ,88 L,13.0244172,77.76198749999999,POINT (77.76198749999999 13.0244172)
Assetz Soul & Soil bangalore,41.06 L -47.93 L,1053-1229 sq.ft,2 BHK Apartment,41.06 L ,47.93 L,12.930827,77.53819899999999,POINT (77.53819899999999 12.930827)
Aswan The Marquis bangalore,40.07 L -40.60 L,1145-1160 sq.ft,2 BHK Apartment,40.07 L ,40.60 L,12.9713671,77.6119065,POINT (77.6119065 12.9713671)
Aswani Aaeesha bangalore,27.25 L -38.75 L,545-775 sq.ft,2 BHK Apartment,27.25 L ,38.75 L,12.8608338,77.6734677,POINT (77.6734677 12.8608338)
Aswani Sunshine bangalore,14.25 L -19.08 L,509-535 sq.ft,2 BHK Apartment,14.25 L ,19.08 L,12.8350619,77.7735794,POINT (77.7735794 12.8350619)
Atco Sapphire bangalore,51.60 L -83 L,1331-1466 sq.ft,2 BHK Apartment,51.60 L ,83 L,12.8606884,77.7767483,POINT (77.77674829999999 12.8606884)
Avani Gardens bangalore,37 L -44.50 L,630 sq.ft,1 BHK Apartment,37 L ,44.50 L,13.0860725,77.6064885,POINT (77.6064885 13.0860725)
Avanti by Shriline bangalore,1.82 Cr -2.84 Cr,1975-2289 sq.ft,3 BHK Apartment,1.82 Cr ,2.84 Cr,12.7101547,77.7072491,POINT (77.7072491 12.7101547)
Axis Antara bangalore,1.94 Cr -4.50 Cr,1950-2313 sq.ft,3 BHK Apartment,1.94 Cr ,4.50 Cr,12.8688053,77.61804939999999,POINT (77.61804939999999 12.8688053)
Axis Vedam bangalore,70.65 L,1000 sq.ft,1 BHK Apartment,70.65 L,0,12.8803091,77.5839891,POINT (77.5839891 12.8803091)
Azven Breathe bangalore,34.12 L -44 L,1050-1070 sq.ft,2 BHK Apartment,34.12 L ,44 L,12.8313905,77.775604,POINT (77.775604 12.8313905)
BRR Sai Sankalp bangalore,1.02 Cr -1.15 Cr,1320 sq.ft,2 BHK Apartment,1.02 Cr ,1.15 Cr,12.9976477,77.7598434,POINT (77.75984339999999 12.9976477)
BSR Sunshine bangalore,65.36 L -69.12 L,1200-1275 sq.ft,2 BHK Apartment,65.36 L ,69.12 L,13.0463979,77.5984395,POINT (77.5984395 13.0463979)
Balaji Ashirvaad Elite bangalore,56.48 L -64.99 L,1120-1305 sq.ft,2 BHK Apartment,56.48 L ,64.99 L,12.8547931,77.59766669999999,POINT (77.59766669999999 12.8547931)
Bavisha Urban Homes bangalore,66.13 L -67.03 L,1248-1265 sq.ft,2 BHK Apartment,66.13 L ,67.03 L,12.8594994,77.765354,POINT (77.765354 12.8594994)
Bhartiya City 2 bangalore,32.07 L -39.41 L,760-934 sq.ft,1 BHK Apartment,32.07 L ,39.41 L,13.0832763,77.6423729,POINT (77.6423729 13.0832763)
Bhartiya City Leela Residences bangalore,92.80 L -1.34 Cr,807-1170 sq.ft,1 BHK Apartment,92.80 L ,1.34 Cr,13.084283,77.642781,POINT (77.642781 13.084283)
Bhartiya City Nikoo Homes II bangalore,49.22 L -84 L,1073-1104 sq.ft,2 BHK Apartment,49.22 L ,84 L,13.085357,77.644525,POINT (77.644525 13.085357)
Bhartiya City bangalore,33.99 L,1160 sq.ft,2 BHK RowHouse,33.99 L,0,13.0832763,77.6423729,POINT (77.6423729 13.0832763)
Bijith Kripa bangalore,49.22 L -54.96 L,1070-1205 sq.ft,2 BHK Apartment,49.22 L ,54.96 L,13.257391,77.7088976,POINT (77.7088976 13.257391)
Blue Bell Homes bangalore,36.01 L -46.65 L,633-820 sq.ft,1 BHK Apartment,36.01 L ,46.65 L,12.9676128,77.70421250000001,POINT (77.70421250000001 12.9676128)
Bluejay Atmosphere bangalore,86.26 L -1.20 Cr,1350 sq.ft,2 BHK Apartment,86.26 L ,1.20 Cr,13.026091,77.48132799999999,POINT (77.48132799999999 13.026091)
Bluejay Malgudi bangalore,58.57 L,1100 sq.ft,2 BHK Apartment,58.57 L,0,12.8651727,77.5484676,POINT (77.5484676 12.8651727)
Bluejay Nine Forum bangalore,1.68 Cr -2.50 Cr,3600 sq.ft,3 BHK Villa,1.68 Cr ,2.50 Cr,12.8645663,77.64013039999999,POINT (77.64013039999999 12.8645663)
Bren Champions Square bangalore,27.75 L -38.83 L,436-639 sq.ft,1 BHK Apartment,27.75 L ,38.83 L,12.901324,77.70859449999999,POINT (77.70859449999999 12.901324)
Bren Edgewaters bangalore,48 L -84 L,960-1121 sq.ft,2 BHK Apartment,48 L ,84 L,12.9022215,77.6699666,POINT (77.6699666 12.9022215)
Bren Imperia bangalore,27.88 L -40.22 L,589-643 sq.ft,1 BHK Apartment,27.88 L ,40.22 L,12.9068814,77.671808,POINT (77.671808 12.9068814)
Bren Northern Lights bangalore,32.83 L -35.74 L,596 sq.ft,1 BHK Apartment,32.83 L ,35.74 L,13.094024,77.60910609999999,POINT (77.60910609999999 13.094024)
Bren Paddington bangalore,70.44 L -95 L,1178-1298 sq.ft,2 BHK Apartment,70.44 L ,95 L,12.9184653,77.6758485,POINT (77.6758485 12.9184653)
Bren Palms bangalore,2.20 Cr,2757 sq.ft,3 BHK Villa,2.20 Cr,0,12.8911424,77.6447601,POINT (77.6447601 12.8911424)
Bren Trillium bangalore,54.06 L -72.16 L,983-1312 sq.ft,2 BHK Apartment,54.06 L ,72.16 L,12.8661314,77.66641539999999,POINT (77.66641539999999 12.8661314)
Bren Woods bangalore,53.20 L -65 L,1031-1065 sq.ft,2 BHK Apartment,53.20 L ,65 L,12.8617047,77.6832261,POINT (77.6832261 12.8617047)
Brick N Land Garden and Skies bangalore,23.04 L,640 sq.ft,1 BHK Apartment,23.04 L,0,12.9085662,77.6446577,POINT (77.6446577 12.9085662)
Brigade 7 Gardens bangalore,60.98 L -94.86 L,1182-1285 sq.ft,2 BHK Apartment,60.98 L ,94.86 L,12.895314,77.53021439999999,POINT (77.53021439999999 12.895314)
Brigade Altamont bangalore,72.95 L -90 L,1260-1270 sq.ft,2 BHK Apartment,72.95 L ,90 L,13.0609295,77.6417051,POINT (77.6417051 13.0609295)
Brigade Atmosphere bangalore,45.62 L -53.05 L,1010-1184 sq.ft,2 BHK Apartment,45.62 L ,53.05 L,13.2661949,77.7388028,POINT (77.7388028 13.2661949)
Brigade Bricklane bangalore,23.04 L,640 sq.ft,1 BHK Apartment,23.04 L,0,13.1003515,77.6320051,POINT (77.6320051 13.1003515)
Brigade Buena Vista Phase I bangalore,31.85 L -37.54 L,720-760 sq.ft,1 BHK Apartment,31.85 L ,37.54 L,13.0639183,77.73973289999999,POINT (77.73973289999999 13.0639183)
Brigade Buena Vista Phase II bangalore,3.25 Cr,3009 sq.ft,3 BHK Apartment,3.25 Cr,0,13.0639183,77.73973289999999,POINT (77.73973289999999 13.0639183)
Brigade Caladium bangalore,3.49 Cr -3.59 Cr,3520 sq.ft,3 BHK Apartment,3.49 Cr ,3.59 Cr,13.0559515,77.596732,POINT (77.596732 13.0559515)
Brigade Cosmopolis - Phase 1 & 2 bangalore,92.26 L -1.25 Cr,1250-1360 sq.ft,2 BHK Apartment,92.26 L ,1.25 Cr,12.9621546,77.7461421,POINT (77.7461421 12.9621546)
Brigade Exotica - Azure Tower bangalore,1.45 Cr -2.20 Cr,2990-3190 sq.ft,3 BHK Apartment,1.45 Cr ,2.20 Cr,13.0443079,77.74501289999999,POINT (77.74501289999999 13.0443079)
Brigade Exotica - Burgundy Tower bangalore,40 L,900 sq.ft,0.5 BHK Apartment,40 L,0,13.0443079,77.74501289999999,POINT (77.74501289999999 13.0443079)
Brigade Gardenia bangalore,48 L -59.76 L,1000-1245 sq.ft,2 BHK Apartment,48 L ,59.76 L,12.8879764,77.57812729999999,POINT (77.57812729999999 12.8879764)
Brigade Golden Triangle bangalore,78 L -92 L,1200 sq.ft,2 BHK Apartment,78 L ,92 L,13.0549285,77.762862,POINT (77.762862 13.0549285)
Brigade Lakefront - Amber Block bangalore,3.10 Cr -4.59 Cr,4150-4390 sq.ft,3 BHK Apartment,3.10 Cr ,4.59 Cr,12.9789932,77.7113528,POINT (77.7113528 12.9789932)
Brigade Lakefront Blue bangalore,2.17 Cr,4100 sq.ft,4 BHK Villa,2.17 Cr,0,12.9789932,77.7113528,POINT (77.7113528 12.9789932)
Brigade Meadows Plumeria bangalore,1.20 Cr -1.50 Cr,1445 sq.ft,2 BHK Apartment,1.20 Cr ,1.50 Cr,12.8134935,77.5117193,POINT (77.5117193 12.8134935)
Brigade Meadows bangalore,35 L -64 L,1010-1300 sq.ft,2 BHK Apartment,35 L ,64 L,12.8141256,77.50819419999999,POINT (77.50819419999999 12.8141256)
Brigade Metropolis bangalore,1.16 Cr,1753 sq.ft,3 BHK RowHouse,1.16 Cr,0,12.9914639,77.7029976,POINT (77.7029976 12.9914639)
Brigade Millennium bangalore,1.10 Cr -1.71 Cr,1650-1695 sq.ft,3 BHK Apartment,1.10 Cr ,1.71 Cr,12.891805,77.58245529999999,POINT (77.58245529999999 12.891805)
Brigade Northridge - Phase 1 bangalore,69 L -95 L,1230 sq.ft,2 BHK Apartment,69 L ,95 L,13.1012353,77.630922,POINT (77.630922 13.1012353)
Brigade Northridge Phase II bangalore,44.99 L,1200 sq.ft,2 BHK Apartment,44.99 L,0,13.1012353,77.630922,POINT (77.630922 13.1012353)
Brigade Omega bangalore,65 L -1 Cr,1310-1390 sq.ft,2 BHK Apartment,65 L ,1 Cr,12.8938298,77.5294655,POINT (77.5294655 12.8938298)
Brigade Orchards Luxury Apartments bangalore,50 L -62 L,1080-1360 sq.ft,2 BHK Apartment,50 L ,62 L,13.230003,77.72362079999999,POINT (77.72362079999999 13.230003)
Brigade Panorama bangalore,55 L,888 sq.ft,1 BHK Apartment,55 L,0,12.8870631,77.45370779999999,POINT (77.45370779999999 12.8870631)
Brigade Parkside East bangalore,36.40 L -47.10 L,1100-1200 sq.ft,2 BHK Apartment,36.40 L ,47.10 L,12.9026133,77.7018458,POINT (77.7018458 12.9026133)
Brigade Parkside West bangalore,39.06 L -42.89 L,1080-1195 sq.ft,2 BHK Apartment,39.06 L ,42.89 L,12.9026133,77.7018458,POINT (77.7018458 12.9026133)
Brigade Woods bangalore,75 L -1.15 Cr,1364-1465 sq.ft,2 BHK Apartment,75 L ,1.15 Cr,12.9783211,77.73385139999999,POINT (77.73385139999999 12.9783211)
Brinda Imperial Phase I bangalore,2.40 Cr -2.66 Cr,2826 sq.ft,3 BHK Villa,2.40 Cr ,2.66 Cr,12.753406,77.64903799999999,POINT (77.64903799999999 12.753406)
Buildmann Aaroha Condominiums  bangalore,1.31 Cr,1462 sq.ft,2.5 BHK Apartment,1.31 Cr,0,13.038895,77.70258500000001,POINT (77.70258500000001 13.038895)
CLPD Suncity Apartments bangalore,60 L -89.17 L,1240-1450 sq.ft,2 BHK Apartment,60 L ,89.17 L,12.9026338,77.70694230000001,POINT (77.70694230000001 12.9026338)
CMRS Mulberry Mist bangalore,1.51 Cr,1541 sq.ft,2 BHK Apartment,1.51 Cr,0,12.9450837,77.7524506,POINT (77.7524506 12.9450837)
Camellia Pride bangalore,32.67 L -49 L,660-690 sq.ft,1 BHK Apartment,32.67 L ,49 L,12.9334857,77.7485129,POINT (77.74851289999999 12.9334857)
Canary Woods bangalore,45.20 L -58.80 L,1174-1470 sq.ft,2 BHK Apartment,45.20 L ,58.80 L,12.9715987,77.5945627,POINT (77.5945627 12.9715987)
Candeur Carlisle bangalore,2.37 Cr -3.46 Cr,1763 sq.ft,2 BHK Apartment,2.37 Cr ,3.46 Cr,12.9969877,77.68995489999999,POINT (77.68995489999999 12.9969877)
Candeur Landmark bangalore,59.90 L -75.57 L,1110-1255 sq.ft,2 BHK Apartment,59.90 L ,75.57 L,12.9218714,77.7373607,POINT (77.7373607 12.9218714)
Candeur Rise bangalore,5.90 L -63.16 L,1050-1215 sq.ft,2 BHK Apartment,5.90 L ,63.16 L,12.9969877,77.68995489999999,POINT (77.68995489999999 12.9969877)
Casa Gopalan bangalore,2.28 Cr -3.14 Cr,2400-2547 sq.ft,3 BHK Apartment,2.28 Cr ,3.14 Cr,12.9685201,77.7424363,POINT (77.74243629999999 12.9685201)
Casagrand Esmeralda bangalore,22 L -32.74 L,525-546 sq.ft,1 BHK Apartment,22 L ,32.74 L,12.8356242,77.7668846,POINT (77.7668846 12.8356242)
Casagrand Lorenza bangalore,40.39 L -64.15 L,1010-1147 sq.ft,2 BHK Apartment,40.39 L ,64.15 L,13.099928,77.6331637,POINT (77.6331637 13.099928)
Casagrand Royce bangalore,28.50 L -37.62 L,600-686 sq.ft,1 BHK Apartment,28.50 L ,37.62 L,13.0095427,77.7301136,POINT (77.7301136 13.0095427)
Cattleya Sriven Nest bangalore,46 L -60 L,1120-1215 sq.ft,2 BHK Apartment,46 L ,60 L,12.9372072,77.7491799,POINT (77.7491799 12.9372072)
Celebrity Serenity bangalore,73.73 L -96.50 L,1741-2074 sq.ft,3 BHK Villa,73.73 L ,96.50 L,12.795757,77.650302,POINT (77.650302 12.795757)
Century Artizan Phase II bangalore,99 L -1.18 Cr,1770 sq.ft,3 BHK Apartment,99 L ,1.18 Cr,13.129355,77.595041,POINT (77.59504099999999 13.129355)
Century Central bangalore,63.82 L -78.10 L,1010-1265 sq.ft,2 BHK Apartment,63.82 L ,78.10 L,12.8917718,77.565457,POINT (77.56545699999999 12.8917718)
Century Ethos bangalore,25.44 L,510 sq.ft,0.5 BHK Apartment,25.44 L,0,13.0616882,77.5950079,POINT (77.5950079 13.0616882)
Century Infiniti bangalore,56.90 L -90 L,1198-1298 sq.ft,2 BHK Apartment,56.90 L ,90 L,12.8975268,77.6772502,POINT (77.6772502 12.8975268)
Century Linea bangalore,34.50 L,600 sq.ft,1 BHK Apartment,34.50 L,0,13.0698545,77.6037801,POINT (77.60378009999999 13.0698545)
Century Saras bangalore,52.37 L -75 L,1058-1258 sq.ft,2 BHK Apartment,52.37 L ,75 L,13.1128005,77.57010129999999,POINT (77.57010129999999 13.1128005)
Chamundi Amber Woods bangalore,73.75 L -90.99 L,1639-2022 sq.ft,3 BHK Apartment,73.75 L ,90.99 L,12.8763746,77.53045089999999,POINT (77.53045089999999 12.8763746)
Chethana Heritage bangalore,60.10 L -74 L,1113-1257 sq.ft,2 BHK Apartment,60.10 L ,74 L,12.9715987,77.5945627,POINT (77.5945627 12.9715987)
Chowriappa Constellation bangalore,87.50 L -91.25 L,1414 sq.ft,2 BHK Apartment,87.50 L ,91.25 L,13.0547139,77.6465134,POINT (77.6465134 13.0547139)
Citrus Aries Lakeview bangalore,57.96 L -58.65 L,1260-1275 sq.ft,2 BHK Apartment,57.96 L ,58.65 L,13.077676,77.6104505,POINT (77.6104505 13.077676)
Citrus Florence bangalore,57.98 L -70.68 L,1160-1414 sq.ft,2 BHK Apartment,57.98 L ,70.68 L,12.9715987,77.5945627,POINT (77.5945627 12.9715987)
Citrus Zen Garden bangalore,51.17 L -60.90 L,1168-1219 sq.ft,2 BHK Apartment,51.17 L ,60.90 L,13.0683918,77.60496169999999,POINT (77.60496169999999 13.0683918)
CoEvolve Northern Star bangalore,67.99 L -88.80 L,1716-2220 sq.ft,3 BHK Villa,67.99 L ,88.80 L,13.081174,77.625001,POINT (77.625001 13.081174)
Columbia Belleza bangalore,58.53 L -1.01 Cr,1115-1130 sq.ft,2 BHK Apartment,58.53 L ,1.01 Cr,12.8711086,77.5780753,POINT (77.57807529999999 12.8711086)
Columbia Celestia bangalore,86.06 L -97.65 L,1110-1265 sq.ft,2 BHK Apartment,86.06 L ,97.65 L,12.8953434,77.5795256,POINT (77.5795256 12.8953434)
Comfort Heights bangalore,2.98 Cr -3.16 Cr,3688-3910 sq.ft,3 BHK Villa,2.98 Cr ,3.16 Cr,12.8874544,77.5537026,POINT (77.55370259999999 12.8874544)
Concorde Amber bangalore,33.52 L -43.45 L,986-1278 sq.ft,2 BHK Apartment,33.52 L ,43.45 L,12.8948188,77.7030423,POINT (77.70304230000001 12.8948188)
Concorde Luxepolis bangalore,2.41 Cr -3.56 Cr,2355-2693 sq.ft,3 BHK Apartment,2.41 Cr ,3.56 Cr,12.9567983,77.56782799999999,POINT (77.56782799999999 12.9567983)
Concorde Napa Valley bangalore,22.98 L -30.50 L,500 sq.ft,1 BHK Apartment,22.98 L ,30.50 L,12.7861871,77.5123704,POINT (77.51237039999999 12.7861871)
Concorde Spring Meadows bangalore,1.29 Cr,2043 sq.ft,3 BHK Villa,1.29 Cr,0,13.064828,77.5051758,POINT (77.5051758 13.064828)
Concorde Tech Turf bangalore,1.49 Cr -1.96 Cr,1846-2109 sq.ft,3 BHK Apartment,1.49 Cr ,1.96 Cr,12.8318141,77.6551811,POINT (77.65518109999999 12.8318141)
Confident Sagitta bangalore,37.37 L -38.18 L,1196-1222 sq.ft,2 BHK Apartment,37.37 L ,38.18 L,12.903687,77.7170089,POINT (77.7170089 12.903687)
Connected Living Whitefield bangalore,57.50 L -87.15 L,735-1047 sq.ft,2 BHK Apartment,57.50 L ,87.15 L,13.0345602,77.7896753,POINT (77.7896753 13.0345602)
Corporate Suncity Gloria Block B bangalore,2.48 Cr -3.35 Cr,2927-3499 sq.ft,3 BHK Apartment,2.48 Cr ,3.35 Cr,12.9026286,77.7069429,POINT (77.7069429 12.9026286)
Countryside Raindance bangalore,57.97 L -66.20 L,1050-1250 sq.ft,2 BHK Apartment,57.97 L ,66.20 L,12.832239,77.6595798,POINT (77.6595798 12.832239)
Cynosure White Spaces bangalore,30 L -38 L,745 sq.ft,1 BHK Apartment,30 L ,38 L,12.9899643,77.78185359999999,POINT (77.78185359999999 12.9899643)
DLR Sabarmati Enclave bangalore,50 L -64.03 L,1128-1423 sq.ft,2 BHK Apartment,50 L ,64.03 L,13.0258664,77.68033059999999,POINT (77.68033059999999 13.0258664)
DNR Atmosphere bangalore,1.09 Cr -1.55 Cr,1610-2257 sq.ft,3 BHK Apartment,1.09 Cr ,1.55 Cr,12.958045,77.7390325,POINT (77.73903249999999 12.958045)
DNR Casablanca bangalore,43.29 L -49.50 L,1116-1220 sq.ft,2 BHK Apartment,43.29 L ,49.50 L,12.9941357,77.6892331,POINT (77.6892331 12.9941357)
DNR Reflection bangalore,45 L -60 L,615-634 sq.ft,1 BHK Apartment,45 L ,60 L,12.9240559,77.66866499999999,POINT (77.66866499999999 12.9240559)
DS & Jacks Needs 3 Project 276 bangalore,55.68 L -65.76 L,1160-1370 sq.ft,2 BHK Apartment,55.68 L ,65.76 L,12.8707878,77.5963239,POINT (77.5963239 12.8707878)
DS Max Splendid bangalore,54.75 L -59.78 L,1110-1220 sq.ft,2 BHK Apartment,54.75 L ,59.78 L,12.9718563,77.4790222,POINT (77.4790222 12.9718563)
DS Max Status bangalore,1.47 Cr -2.10 Cr,2200-3004 sq.ft,3 BHK Villa,1.47 Cr ,2.10 Cr,13.131781,77.5661959,POINT (77.5661959 13.131781)
DSMAX SAANJH bangalore,56.14 L -67 L,1182-1333 sq.ft,2 BHK Apartment,56.14 L ,67 L,12.874364,77.6173867,POINT (77.6173867 12.874364)
DSMAX SAROVAR bangalore,19.55 L -20.82 L,782-833 sq.ft,1 BHK Apartment,19.55 L ,20.82 L,12.7815368,77.7818487,POINT (77.7818487 12.7815368)
DSMAX SAVERA bangalore,54 L -63.02 L,1080-1220 sq.ft,2 BHK Apartment,54 L ,63.02 L,12.9060634,77.5403467,POINT (77.5403467 12.9060634)
DSMAX SKYCITY bangalore,74.70 L -1.03 Cr,2019-2293 sq.ft,3 BHK Apartment,74.70 L ,1.03 Cr,13.0810365,77.6343988,POINT (77.6343988 13.0810365)
DSMAX SKYCLASSIC bangalore,1.56 Cr -1.92 Cr,2183 sq.ft,3 BHK Apartment,1.56 Cr ,1.92 Cr,12.8178837,77.67089539999999,POINT (77.67089539999999 12.8178837)
DSMAX SKYLISHCIOUS bangalore,70.35 L -88 L,1407 sq.ft,2 BHK Apartment,70.35 L ,88 L,12.834025,77.7865073,POINT (77.7865073 12.834025)
DSMAX SKYSCAPE bangalore,59.68 L -81.68 L,955-1257 sq.ft,2 BHK Apartment,59.68 L ,81.68 L,13.0550595,77.6830226,POINT (77.6830226 13.0550595)
DSMAX STARRY bangalore,61 L -1.44 Cr,1600 sq.ft,Plot,61 L ,1.44 Cr,12.8288136,77.6511943,POINT (77.6511943 12.8288136)
DSMAX STONESCAPE bangalore,45.20 L -58.80 L,1174-1470 sq.ft,2 BHK Apartment,45.20 L ,58.80 L,12.8518163,77.5573227,POINT (77.5573227 12.8518163)
DSR Sunrise Towers bangalore,94 L -1.15 Cr,1705-2000 sq.ft,3 BHK Apartment,94 L ,1.15 Cr,12.9821505,77.7602375,POINT (77.7602375 12.9821505)
DSR Waterscape bangalore,59.39 L -62.81 L,1181-1249 sq.ft,2 BHK Apartment,59.39 L ,62.81 L,13.0452085,77.6794603,POINT (77.6794603 13.0452085)
DSR White Waters Phase II bangalore,1.93 Cr -3.70 Cr,2713-4033 sq.ft,3 BHK Apartment,1.93 Cr ,3.70 Cr,12.9174004,77.7168506,POINT (77.7168506 12.9174004)
Damden Vivo bangalore,12.76 L -16.96 L,534-710 sq.ft,1 BHK Apartment,12.76 L ,16.96 L,12.8001258,77.7830215,POINT (77.7830215 12.8001258)
Deccan Habitat bangalore,1.29 Cr -2.36 Cr,1776-1792 sq.ft,3 BHK Apartment,1.29 Cr ,2.36 Cr,13.029479,77.545092,POINT (77.545092 13.029479)
Definer Hi-Life bangalore,61.25 L -83 L,1225-1315 sq.ft,2 BHK Apartment,61.25 L ,83 L,13.0361409,77.69325239999999,POINT (77.69325239999999 13.0361409)
Definer Kingdom bangalore,30 L,492 sq.ft,1 BHK Apartment,30 L,0,13.073524,77.74467159999999,POINT (77.74467159999999 13.073524)
Dhammanagi Kings Ville bangalore,1.40 Cr -2.20 Cr,2178-2470 sq.ft,3 BHK Apartment,1.40 Cr ,2.20 Cr,12.9960918,77.583631,POINT (77.583631 12.9960918)
Dhanapriya Paradise bangalore,2.50 Cr,2900 sq.ft,3 BHK Apartment,2.50 Cr,0,12.9715987,77.5945627,POINT (77.5945627 12.9715987)
Dharanis Prakruthi Park bangalore,41.60 L -45.76 L,1035-1150 sq.ft,2 BHK Apartment,41.60 L ,45.76 L,12.8461858,77.82759890000001,POINT (77.82759890000001 12.8461858)
Dharma Castle bangalore,70 L -75.60 L,1121-1122 sq.ft,2 BHK Apartment,70 L ,75.60 L,13.0106268,77.6532302,POINT (77.6532302 13.0106268)
Dharma Elite bangalore,1.11 Cr -1.20 Cr,1830-1848 sq.ft,3 BHK Apartment,1.11 Cr ,1.20 Cr,13.0103618,77.65204690000002,POINT (77.65204690000002 13.0103618)
Dhiraan Newyork Meadows bangalore,22.05 L,640 sq.ft,1 BHK Apartment,22.05 L,0,12.7879805,77.7116203,POINT (77.71162030000001 12.7879805)
Dhruv Paradise bangalore,46.62 L -52.38 L,1106-1252 sq.ft,2 BHK Apartment,46.62 L ,52.38 L,12.9027777,77.6837666,POINT (77.6837666 12.9027777)
Disha Central Park bangalore,56 L -69 L,1050-1080 sq.ft,2 BHK Apartment,56 L ,69 L,12.9376923,77.713246,POINT (77.713246 12.9376923)
DivyaSree 77 Place bangalore,55.04 L -62.65 L,1251-1264 sq.ft,2 BHK Apartment,55.04 L ,62.65 L,12.9486621,77.69325239999999,POINT (77.69325239999999 12.9486621)
DivyaSree Republic Of Whitefield bangalore,50.32 L -62 L,1100 sq.ft,2 BHK Apartment,50.32 L ,62 L,12.9662768,77.7243859,POINT (77.7243859 12.9662768)
Durga Petals bangalore,52 L -90 L,840-877 sq.ft,1 BHK Apartment,52 L ,90 L,12.9757699,77.6972803,POINT (77.6972803 12.9757699)
ELV KingsLand bangalore,38.52 L -49.64 L,1070-1360 sq.ft,2 BHK Apartment,38.52 L ,49.64 L,12.9694606,77.7414335,POINT (77.7414335 12.9694606)
Ecolife Elements Of Nature bangalore,33 L,651 sq.ft,1 BHK Apartment,33 L,0,12.9387277,77.73112619999999,POINT (77.73112619999999 12.9387277)
Eden and Serene at Brigade Cornerstone Utopia bangalore,27.35 L -30 L,547 sq.ft,0.5 BHK Apartment,27.35 L ,30 L,12.9344677,77.7439053,POINT (77.74390529999999 12.9344677)
Elegant Pride bangalore,43.32 L -67 L,1140 sq.ft,2 BHK Apartment,43.32 L ,67 L,13.0012678,77.6225051,POINT (77.6225051 13.0012678)
Embassy Boulevard bangalore,6.84 Cr,3935 sq.ft,4 BHK Apartment,6.84 Cr,0,13.1479839,77.6389992,POINT (77.6389992 13.1479839)
Embassy Edge bangalore,36 L -41 L,607-696 sq.ft,1 BHK Apartment,36 L ,41 L,13.2459154,77.7145355,POINT (77.7145355 13.2459154)
Embassy Lake Terraces bangalore,4.34 Cr -5.33 Cr,3531-4209 sq.ft,3 BHK Apartment,4.34 Cr ,5.33 Cr,13.0499669,77.5933108,POINT (77.5933108 13.0499669)
Embassy Pristine bangalore,63.30 L -75 L,1266-1288 sq.ft,2 BHK Apartment,63.30 L ,75 L,12.9280203,77.6609868,POINT (77.6609868 12.9280203)
Embassy Springs bangalore,1.10 Cr -2.89 Cr,2125-5400 sq.ft,Plot,1.10 Cr ,2.89 Cr,13.2026171,77.6241374,POINT (77.6241374 13.2026171)
Emmanuel Heights bangalore,52.96 L -68 L,1197 sq.ft,2 BHK Apartment,52.96 L ,68 L,12.8921796,77.67382889999999,POINT (77.67382889999999 12.8921796)
Eshwaree Orchids bangalore,28.80 L,640 sq.ft,1 BHK Apartment,28.80 L,0,12.9715987,77.5945627,POINT (77.5945627 12.9715987)
Essem18 Poetree bangalore,65 L -1.30 Cr,1572-2282 sq.ft,3 BHK Villa,65 L ,1.30 Cr,12.9066586,77.6795801,POINT (77.6795801 12.9066586)
Esteem Emblem bangalore,33.72 L,660 sq.ft,1 BHK Apartment,33.72 L,0,12.8382576,77.6846614,POINT (77.6846614 12.8382576)
Evershine Greenwood bangalore,75.60 L -90 L,1260-1340 sq.ft,2 BHK Apartment,75.60 L ,90 L,12.8610024,77.78054159999999,POINT (77.78054159999999 12.8610024)
Expart The Wisdom Tree bangalore,60.43 L -66.33 L,1259-1382 sq.ft,2 BHK Apartment,60.43 L ,66.33 L,13.0610879,77.63975789999999,POINT (77.63975789999999 13.0610879)
Ezzy Corinth bangalore,77 L -1.07 Cr,1200-1223 sq.ft,2 BHK Apartment,77 L ,1.07 Cr,13.0657555,77.65154439999999,POINT (77.65154439999999 13.0657555)
Fire Luxur The Empyrean Phase II bangalore,35 L -60.69 L,1062-1190 sq.ft,2 BHK Apartment,35 L ,60.69 L,12.9048299,77.8677685,POINT (77.8677685 12.9048299)
Fire Luxur The Empyrean bangalore,55 L -65 L,1102 sq.ft,2 BHK Apartment,55 L ,65 L,12.9048299,77.8677685,POINT (77.8677685 12.9048299)
Fortius Under The Sun bangalore,32 L -51.79 L,956-1363 sq.ft,2 BHK Apartment,32 L ,51.79 L,13.2364997,77.67890609999999,POINT (77.67890609999999 13.2364997)
Fortuna Acacia bangalore,85 L -92 L,1855-1960 sq.ft,3 BHK Villa,85 L ,92 L,13.0698679,77.58699580000001,POINT (77.58699580000001 13.0698679)
Fortuna Krrish bangalore,42.89 L -44.24 L,1070-1110 sq.ft,2 BHK Apartment,42.89 L ,44.24 L,13.0407862,77.6753256,POINT (77.67532559999999 13.0407862)
Frontier Heights bangalore,54.29 L -70 L,1143-1192 sq.ft,2 BHK Apartment,54.29 L ,70 L,12.9055155,77.6756456,POINT (77.6756456 12.9055155)
G Corp The Icon Phase III bangalore,47 L,500 sq.ft,0.5 BHK Apartment,47 L,0,13.0473654,77.62548389999999,POINT (77.62548389999999 13.0473654)
G Corp The Icon bangalore,1 Cr -1.50 Cr,1301 sq.ft,2 BHK Apartment,1 Cr ,1.50 Cr,13.0473654,77.62548389999999,POINT (77.62548389999999 13.0473654)
GAG Classic Amrutha bangalore,1.91 Cr -3.20 Cr,3030-3148 sq.ft,3 BHK Villa,1.91 Cr ,3.20 Cr,12.8750421,77.54395509999999,POINT (77.54395509999999 12.8750421)
GCN White Palms bangalore,28.68 L -33.71 L,1040-1250 sq.ft,2 BHK Apartment,28.68 L ,33.71 L,12.9616048,77.74209499999999,POINT (77.74209499999999 12.9616048)
GK Tropical Springs bangalore,44.64 L -74.37 L,1226-1374 sq.ft,2 BHK Apartment,44.64 L ,74.37 L,12.9846992,77.7761359,POINT (77.7761359 12.9846992)
GM Global Techies Town Tower 01 A bangalore,46.80 L,1200 sq.ft,Plot,46.80 L,0,12.8227035,77.66084110000001,POINT (77.66084110000001 12.8227035)
GM Global Techies Town Tower 03 C bangalore,60 L -98.02 L,1255-1885 sq.ft,2 BHK Apartment,60 L ,98.02 L,12.8227035,77.66084110000001,POINT (77.66084110000001 12.8227035)
GM Infinite Daffodils bangalore,69 L -72.87 L,1325 sq.ft,2 BHK Apartment,69 L ,72.87 L,13.0617529,77.50699999999999,POINT (77.50699999999999 13.0617529)
GM Infinite E City Town Phase I bangalore,31.50 L -63 L,755-1070 sq.ft,2 BHK Apartment,31.50 L ,63 L,12.8192308,77.66407,POINT (77.66407 12.8192308)
GM Infinite E City Town Phase II bangalore,80.30 L -81.40 L,1460-1480 sq.ft,2 BHK Apartment,80.30 L ,81.40 L,12.8192308,77.66407,POINT (77.66407 12.8192308)
GP North Avenue bangalore,49.44 L -57.47 L,1009-1173 sq.ft,2 BHK Apartment,49.44 L ,57.47 L,13.0827637,77.622828,POINT (77.622828 13.0827637)
GR Elysium 3 bangalore,60.45 L -93.69 L,1115-1385 sq.ft,2 BHK Apartment,60.45 L ,93.69 L,13.0000972,77.7514952,POINT (77.75149519999999 13.0000972)
GR Regent Park bangalore,75.52 L -78.47 L,1280-1330 sq.ft,2 BHK Apartment,75.52 L ,78.47 L,12.8551283,77.5936002,POINT (77.5936002 12.8551283)
GRC Brundavan bangalore,2 Cr,1450 sq.ft,2 BHK Apartment,2 Cr,0,12.9393493,77.5190858,POINT (77.5190858 12.9393493)
GRC Subhiksha bangalore,54 L -99 L,1151-1197 sq.ft,2 BHK Apartment,54 L ,99 L,12.8848843,77.6819939,POINT (77.68199389999999 12.8848843)
Gajanana Sumuk bangalore,1.15 Cr -1.35 Cr,2260-2674 sq.ft,4 BHK Villa,1.15 Cr ,1.35 Cr,12.9917127,77.7185076,POINT (77.7185076 12.9917127)
Garuda Royal Homes bangalore,28.16 L,626 sq.ft,1 BHK Apartment,28.16 L,0,13.0151889,77.7057087,POINT (77.7057087 13.0151889)
Garuda Vista bangalore,66.07 L -85.35 L,1104-1317 sq.ft,2 BHK Apartment,66.07 L ,85.35 L,12.9852446,77.6867056,POINT (77.6867056 12.9852446)
Geown Oasis bangalore,80 L -88.61 L,1881 sq.ft,3 BHK Villa,80 L ,88.61 L,12.8826228,77.7831451,POINT (77.7831451 12.8826228)
Gina Shalom bangalore,75.18 L -77.70 L,1400-1447 sq.ft,2.5 BHK Apartment,75.18 L ,77.70 L,13.0184845,77.70791849999999,POINT (77.70791849999999 13.0184845)
Global Golden Pearl bangalore,25.44 L,250 sq.ft,0.5 BHK Apartment,25.44 L,0,12.787143,77.77711099999999,POINT (77.77711099999999 12.787143)
Gnana Bhoomi bangalore,57.47 L -65 L,1023-1127 sq.ft,2 BHK Apartment,57.47 L ,65 L,13.2805947,77.6198082,POINT (77.61980819999999 13.2805947)
Godrej Air bangalore,43 L -65 L,706-716 sq.ft,1 BHK Apartment,43 L ,65 L,12.9886656,77.71185009999999,POINT (77.71185009999999 12.9886656)
Godrej Aqua bangalore,27.33 L -27.33 L,692 sq.ft,1 BHK Apartment,27.33 L ,27.33 L,13.1461447,77.6376119,POINT (77.6376119 13.1461447)
Godrej E-City bangalore,31.90 L,638 sq.ft,1 BHK Apartment,31.90 L,0,12.8534247,77.65302580000001,POINT (77.65302580000001 12.8534247)
Godrej Eternity Life Plus bangalore,53.24 L -67.57 L,1348-1470 sq.ft,2 BHK Apartment,53.24 L ,67.57 L,12.8561767,77.5418038,POINT (77.5418038 12.8561767)
Godrej Eternity bangalore,49 L -54 L,775 sq.ft,1 BHK Apartment,49 L ,54 L,12.8570477,77.5407321,POINT (77.5407321 12.8570477)
Godrej Gold County bangalore,4.50 Cr,2500 sq.ft,3 BHK Apartment,4.50 Cr,0,13.046768,77.4902439,POINT (77.4902439 13.046768)
Godrej Platinum bangalore,58.82 L -65.97 L,905-1015 sq.ft,2 BHK Apartment,58.82 L ,65.97 L,13.0547182,77.5937366,POINT (77.5937366 13.0547182)
Godrej Reflections bangalore,43.82 L -45.24 L,1100-1105 sq.ft,2 BHK Apartment,43.82 L ,45.24 L,12.9118913,77.668165,POINT (77.668165 12.9118913)
Godrej Reserve bangalore,94.50 L -98.37 L,1200-1250 sq.ft,2 BHK Apartment,94.50 L ,98.37 L,13.2417155,77.71373059999999,POINT (77.71373059999999 13.2417155)
Godrej United bangalore,1 Cr -1.30 Cr,1832-2076 sq.ft,3 BHK Apartment,1 Cr ,1.30 Cr,12.9943081,77.70449769999999,POINT (77.70449769999999 12.9943081)
Godrej Woodsman Estate bangalore,1.05 Cr -1.42 Cr,1272-1459 sq.ft,2 BHK Apartment,1.05 Cr ,1.42 Cr,13.0544261,77.5960248,POINT (77.5960248 13.0544261)
Golden Grand bangalore,45.36 L -52.21 L,1060-1220 sq.ft,2 BHK Apartment,45.36 L ,52.21 L,13.0268946,77.5464606,POINT (77.5464606 13.0268946)
Gopalan Atlantis bangalore,1.38 Cr -1.77 Cr,1948 sq.ft,3 BHK Villa,1.38 Cr ,1.77 Cr,12.9741618,77.7439856,POINT (77.7439856 12.9741618)
Gopalan Lake Front bangalore,59.30 L -70.23 L,1119-1229 sq.ft,2 BHK Apartment,59.30 L ,70.23 L,12.8377608,77.6764512,POINT (77.6764512 12.8377608)
Gopalan Olympia bangalore,43.66 L -45.76 L,980-1030 sq.ft,2 BHK Apartment,43.66 L ,45.76 L,12.8753163,77.4501207,POINT (77.4501207 12.8753163)
Gopalan Sanskriti bangalore,68.05 L -97 L,1047-1068 sq.ft,2 BHK Apartment,68.05 L ,97 L,12.9128816,77.4958233,POINT (77.4958233 12.9128816)
Goyal Alanoville bangalore,36.87 L -40 L,710 sq.ft,1 BHK Apartment,36.87 L ,40 L,13.0887141,77.6594168,POINT (77.6594168 13.0887141)
Goyal Orchid Lakeview bangalore,59.94 L -90 L,1211-1299 sq.ft,2 BHK Apartment,59.94 L ,90 L,12.9315349,77.67864809999999,POINT (77.67864809999999 12.9315349)
Goyal Orchid Woods bangalore,35 L -50 L,589-839 sq.ft,1 BHK Apartment,35 L ,50 L,13.0663138,77.6507041,POINT (77.6507041 13.0663138)
Grand Duke Villas bangalore,32.94 L -41.57 L,867-1094 sq.ft,2 BHK Apartment,32.94 L ,41.57 L,12.7609104,77.6963918,POINT (77.6963918 12.7609104)
Grand Gandharva bangalore,29 L -35.72 L,526 sq.ft,1 BHK Apartment,29 L ,35.72 L,12.9320964,77.51022449999999,POINT (77.51022449999999 12.9320964)
Gravity Nakshatra bangalore,75 L -96 L,1800 sq.ft,3 BHK Villa,75 L ,96 L,13.073371,77.80411389999999,POINT (77.80411389999999 13.073371)
Gravity Sundridge bangalore,2.48 Cr -2.54 Cr,4100-4200 sq.ft,4 BHK Villa,2.48 Cr ,2.54 Cr,13.1777165,77.55935149999999,POINT (77.55935149999999 13.1777165)
Green City Eutopia bangalore,45 L,1200 sq.ft,Plot,45 L,0,12.9097565,77.6099162,POINT (77.6099162 12.9097565)
Greystone Mirror On Water bangalore,58.69 L,1005 sq.ft,1 BHK Apartment,58.69 L,0,12.8943569,77.6618761,POINT (77.6618761 12.8943569)
Griha Unnathi bangalore,52.38 L -72.37 L,1069-1477 sq.ft,2 BHK Apartment,52.38 L ,72.37 L,13.0590857,77.6590355,POINT (77.6590355 13.0590857)
HM Crescendo bangalore,79 L -98 L,1059-1278 sq.ft,2 BHK Apartment,79 L ,98 L,12.9886925,77.5941112,POINT (77.5941112 12.9886925)
HW Archstone bangalore,30 L -46 L,1105-1274 sq.ft,2 BHK Apartment,30 L ,46 L,13.0290541,77.6302934,POINT (77.6302934 13.0290541)
Habitat Eden Heights bangalore,5.60 L -58.81 L,1058-1210 sq.ft,2 BHK Apartment,5.60 L ,58.81 L,12.9904266,77.7142049,POINT (77.7142049 12.9904266)
Habitat Iluminar bangalore,46.80 L -59 L,1000-1031 sq.ft,2 BHK Apartment,46.80 L ,59 L,12.9155329,77.4933195,POINT (77.4933195 12.9155329)
Hara Vijaya Heights bangalore,28 L -39.59 L,666 sq.ft,1 BHK Apartment,28 L ,39.59 L,12.8634786,77.526696,POINT (77.526696 12.8634786)
Hatha Coco Nest bangalore,1.55 Cr,1950 sq.ft,3 BHK Villa,1.55 Cr,0,12.9452912,77.67882329999999,POINT (77.67882329999999 12.9452912)
Hebron Avenue bangalore,35.07 L -48.39 L,1117 sq.ft,2 BHK Apartment,35.07 L ,48.39 L,13.0323,77.69942309999999,POINT (77.69942309999999 13.0323)
Hilife Greens bangalore,1.04 Cr,1810 sq.ft,3 BHK Apartment,1.04 Cr,0,12.9303537,77.7302936,POINT (77.7302936 12.9303537)
Hiranandani Club Meadows bangalore,1.50 Cr -1.77 Cr,1788-1836 sq.ft,3 BHK Apartment,1.50 Cr ,1.77 Cr,12.875594,77.612397,POINT (77.612397 12.875594)
Hiranandani Evita bangalore,60.50 L -84.97 L,1210-1685 sq.ft,2 BHK Apartment,60.50 L ,84.97 L,12.8760537,77.6121874,POINT (77.6121874 12.8760537)
Hiranandani Glen Classic bangalore,45.99 L -76.19 L,1045-1070 sq.ft,2 BHK Apartment,45.99 L ,76.19 L,13.0530787,77.5743451,POINT (77.5743451 13.0530787)
Hiranandani Glen Gate bangalore,80 L,650 sq.ft,1 BHK Apartment,80 L,0,13.0530787,77.5743451,POINT (77.5743451 13.0530787)
Hiranandani Queensgate bangalore,36.48 L -40 L,697 sq.ft,1 BHK Apartment,36.48 L ,40 L,12.8740261,77.6100293,POINT (77.61002929999999 12.8740261)
Hiren High Cliff bangalore,65.11 L -1.02 Cr,1002-1251 sq.ft,2 BHK Apartment,65.11 L ,1.02 Cr,12.9124433,77.6517185,POINT (77.6517185 12.9124433)
Home Town The Address bangalore,92.23 L -1.27 Cr,1521-1634 sq.ft,2 BHK Apartment,92.23 L ,1.27 Cr,12.9382404,77.6871472,POINT (77.6871472 12.9382404)
Hrvy Sai Sapphire bangalore,21.78 L,1815 sq.ft,2 BHK Apartment,21.78 L,0,12.8947372,77.57857159999999,POINT (77.57857159999999 12.8947372)
IDEB Springfields bangalore,40.42 L -40.45 L,711 sq.ft,1 BHK Apartment,40.42 L ,40.45 L,12.9181948,77.6695175,POINT (77.6695175 12.9181948)
Icon Laurels bangalore,65 L -69 L,1100-1150 sq.ft,2 BHK Apartment,65 L ,69 L,12.7998369,77.6793722,POINT (77.6793722 12.7998369)
Icon Sanctuary bangalore,1.57 Cr -2.33 Cr,2807-3714 sq.ft,3 BHK RowHouse,1.57 Cr ,2.33 Cr,12.8554461,77.809677,POINT (77.80967699999999 12.8554461)
Incor Carmel Heights bangalore,76.83 L -1.03 Cr,1352 sq.ft,2 BHK Apartment,76.83 L ,1.03 Cr,12.9608801,77.74778549999999,POINT (77.74778549999999 12.9608801)
Indio Classic bangalore,42.21 L -43.12 L,1160-1185 sq.ft,2 BHK Apartment,42.21 L ,43.12 L,12.9715987,77.5945627,POINT (77.5945627 12.9715987)
Inner Spaces Meadow In The Sun bangalore,85 L,1700 sq.ft,3 BHK Apartment,85 L,0,12.8982134,77.6726237,POINT (77.6726237 12.8982134)
Ittina Neela bangalore,77.87 L -98.48 L,1198 sq.ft,2 BHK Apartment,77.87 L ,98.48 L,12.831385,77.700493,POINT (77.70049299999999 12.831385)
JK Suchiraa Villas bangalore,68.99 L -70.52 L,1266-1294 sq.ft,2 BHK Apartment,68.99 L ,70.52 L,13.0694552,77.5173107,POINT (77.5173107 13.0694552)
JR Nexus bangalore,50.15 L -52.15 L,595 sq.ft,1 BHK Apartment,50.15 L ,52.15 L,12.7715636,77.7018348,POINT (77.7018348 12.7715636)
JRC Palladio bangalore,1.25 Cr,1700 sq.ft,3 BHK Villa,1.25 Cr,0,12.8275997,77.7729567,POINT (77.77295669999999 12.8275997)
Jain Heights East Parade bangalore,16.57 L,425 sq.ft,1 BHK Apartment,16.57 L,0,12.9735006,77.6823713,POINT (77.6823713 12.9735006)
Jain Heights Grand West bangalore,29.50 L -34.77 L,911-1044 sq.ft,2 BHK Apartment,29.50 L ,34.77 L,13.0171545,77.5504018,POINT (77.5504018 13.0171545)
Janaadhar Shubha Phase II bangalore,19 L -25 L,650-656 sq.ft,2 BHK Apartment,19 L ,25 L,12.7379428,77.7343688,POINT (77.7343688 12.7379428)
Jayanth Santis bangalore,72.83 L -1.03 Cr,1595-2807 sq.ft,3 BHK Villa,72.83 L ,1.03 Cr,13.1115752,77.5722524,POINT (77.5722524 13.1115752)
Jeevan Grandeur bangalore,42.35 L -52.46 L,1075-1220 sq.ft,2 BHK Apartment,42.35 L ,52.46 L,13.0053452,77.7482751,POINT (77.7482751 13.0053452)
Jeevan Pristine bangalore,1.35 Cr -2.16 Cr,1500-2400 sq.ft,4 BHK Villa,1.35 Cr ,2.16 Cr,12.9715987,77.5945627,POINT (77.5945627 12.9715987)
Jeevanadi Sampoorna bangalore,1.10 Cr -2.89 Cr,2125-5400 sq.ft,Plot,1.10 Cr ,2.89 Cr,13.0643327,77.56973119999999,POINT (77.56973119999999 13.0643327)
KBR Elite bangalore,1.30 Cr -1.70 Cr,2065-2355 sq.ft,3 BHK Apartment,1.30 Cr ,1.70 Cr,13.048417,77.60612789999999,POINT (77.60612789999999 13.048417)
KMB La Palazzo bangalore,2.35 Cr -2.88 Cr,2622-3209 sq.ft,3 BHK Apartment,2.35 Cr ,2.88 Cr,12.9196722,77.6659963,POINT (77.6659963 12.9196722)
KNS Ojas bangalore,27 L -35 L,845 sq.ft,2 BHK Apartment,27 L ,35 L,12.947932,77.445078,POINT (77.445078 12.947932)
KR Grand View Heights bangalore,67.47 L -76.63 L,1220-1355 sq.ft,2 BHK Apartment,67.47 L ,76.63 L,13.0191483,77.672857,POINT (77.67285699999999 13.0191483)
KVG Grandeur bangalore,28.47 L -37.15 L,949-1032 sq.ft,2 BHK Apartment,28.47 L ,37.15 L,13.0274574,77.6900306,POINT (77.6900306 13.0274574)
Karle Zenith Residences bangalore,41.39 L -65.10 L,920 sq.ft,2 BHK Apartment,41.39 L ,65.10 L,13.0472844,77.61612939999999,POINT (77.61612939999999 13.0472844)
Karsten Palm Groves bangalore,22.45 L -30 L,691-909 sq.ft,2 BHK Apartment,22.45 L ,30 L,12.7741873,77.6961678,POINT (77.6961678 12.7741873)
Kataria Builteck Residency bangalore,15 L -40.50 L,550-1200 sq.ft,2 BHK Apartment,15 L ,40.50 L,12.8213574,77.6876728,POINT (77.6876728 12.8213574)
Keerthi Krishna Viva bangalore,50.35 L -63.65 L,1060-1340 sq.ft,2 BHK Apartment,50.35 L ,63.65 L,12.9106527,77.6840375,POINT (77.6840375 12.9106527)
Keerthi Royal Palms bangalore,40.59 L -51.25 L,990-1250 sq.ft,2 BHK Apartment,40.59 L ,51.25 L,12.8622252,77.6605814,POINT (77.6605814 12.8622252)
Keya Homes The Green Terraces bangalore,38.15 L -47.04 L,1070-1125 sq.ft,2 BHK Apartment,38.15 L ,47.04 L,12.8220091,77.6563314,POINT (77.6563314 12.8220091)
Keystone Sarovar bangalore,47.83 L,1074 sq.ft,2 BHK Apartment,47.83 L,0,12.8670332,77.57339809999999,POINT (77.57339809999999 12.8670332)
Klassik Landmark Phase 2 bangalore,2.03 Cr -2.40 Cr,2717-3026 sq.ft,4 BHK Villa,2.03 Cr ,2.40 Cr,12.8956917,77.6775754,POINT (77.67757539999999 12.8956917)
Klassik Landmark bangalore,1.40 Cr,2200 sq.ft,3 BHK Apartment,1.40 Cr,0,12.8956917,77.6775754,POINT (77.67757539999999 12.8956917)
Kolte Patil 24K Grazio bangalore,1.10 Cr,1200 sq.ft,2 BHK Apartment,1.10 Cr,0,12.9246763,77.6308584,POINT (77.63085839999999 12.9246763)
Kolte Patil I TOWERS Exente bangalore,85.57 L -1.26 Cr,1339 sq.ft,2 BHK Apartment,85.57 L ,1.26 Cr,12.849516,77.669984,POINT (77.669984 12.849516)
Kolte Patil Mirabilis bangalore,8.50 Cr -13.14 Cr,6116 sq.ft,4 BHK Apartment,8.50 Cr ,13.14 Cr,13.031804,77.661173,POINT (77.66117300000001 13.031804)
Kolte Patil Raaga bangalore,46.21 L -60 L,973-1066 sq.ft,2 BHK Apartment,46.21 L ,60 L,13.0956915,77.6478017,POINT (77.6478017 13.0956915)
Krish Eirianwen bangalore,53.62 L -64.25 L,1113-1310 sq.ft,2 BHK Apartment,53.62 L ,64.25 L,13.0183013,77.7252647,POINT (77.7252647 13.0183013)
Krishna Greens North Pride bangalore,42.40 L -58.80 L,1060-1470 sq.ft,2 BHK Apartment,42.40 L ,58.80 L,13.270314,77.61911599999999,POINT (77.61911599999999 13.270314)
Krishnaja Northcity bangalore,36 L -45 L,885 sq.ft,2 BHK Apartment,36 L ,45 L,13.2389421,77.7059788,POINT (77.7059788 13.2389421)
Kritan Ira bangalore,29.45 L,750 sq.ft,0.5 BHK Apartment,29.45 L,0,12.8211271,77.660999,POINT (77.660999 12.8211271)
Kritan Iris bangalore,22.42 L -28.50 L,590-750 sq.ft,1 BHK Apartment,22.42 L ,28.50 L,12.8361701,77.6966127,POINT (77.6966127 12.8361701)
Kumari Lotus bangalore,36.75 L -45.50 L,1050-1300 sq.ft,2 BHK Apartment,36.75 L ,45.50 L,12.9033063,77.68468179999999,POINT (77.68468179999999 12.9033063)
L&T South City bangalore,42.60 L -45.80 L,760-825 sq.ft,1 BHK Apartment,42.60 L ,45.80 L,12.8877919,77.591002,POINT (77.591002 12.8877919)
LGCL Happy Days bangalore,24.28 L -28 L,607-700 sq.ft,1 BHK Apartment,24.28 L ,28 L,13.0764068,77.66594429999999,POINT (77.66594429999999 13.0764068)
LGCL New Life Villas bangalore,42.72 L -54.18 L,1068-1260 sq.ft,2 BHK Apartment,42.72 L ,54.18 L,12.884808,77.685152,POINT (77.685152 12.884808)
LGCL One Street bangalore,1.31 Cr -1.32 Cr,2027-2045 sq.ft,3 BHK TownHouse,1.31 Cr ,1.32 Cr,13.0668077,77.6602794,POINT (77.66027939999999 13.0668077)
LGCL Pueblo bangalore,1.98 Cr -2.41 Cr,2483-3027 sq.ft,4 BHK Villa,1.98 Cr ,2.41 Cr,12.8666049,77.6672102,POINT (77.6672102 12.8666049)
LGCL Stonescape bangalore,2 Cr -3.47 Cr,2651-3565 sq.ft,3 BHK Villa,2 Cr ,3.47 Cr,13.0793738,77.6625359,POINT (77.66253589999999 13.0793738)
LVS Gardenia Phase 1 bangalore,63.18 L,1215 sq.ft,2 BHK Apartment,63.18 L,0,13.0345318,77.7024472,POINT (77.70244719999999 13.0345318)
Land Capital Primero bangalore,29.31 L,839 sq.ft,2 BHK Apartment,29.31 L,0,12.905134,77.7048731,POINT (77.7048731 12.905134)
Legacy Calista bangalore,98.60 L -1.25 Cr,1450 sq.ft,2 BHK Apartment,98.60 L ,1.25 Cr,13.111337,77.5681996,POINT (77.5681996 13.111337)
Legacy Cirocco bangalore,75.40 L -99.48 L,1219-1230 sq.ft,2 BHK Apartment,75.40 L ,99.48 L,13.087229,77.596148,POINT (77.596148 13.087229)
Legacy Eldora bangalore,1.31 Cr,2185 sq.ft,2 BHK Apartment,1.31 Cr,0,13.102545,77.623708,POINT (77.62370799999999 13.102545)
Legacy Salvador bangalore,31.50 L -37.11 L,955-1125 sq.ft,2 BHK Apartment,31.50 L ,37.11 L,13.1201364,77.58103299999999,POINT (77.58103299999999 13.1201364)
Legacy Vivienda bangalore,1.84 Cr -1.94 Cr,2634-2789 sq.ft,3 BHK RowHouse,1.84 Cr ,1.94 Cr,13.1857708,77.66031029999999,POINT (77.66031029999999 13.1857708)
Lennar Edifice bangalore,39.32 L -53.23 L,661-664 sq.ft,1 BHK Apartment,39.32 L ,53.23 L,12.9779258,77.7370902,POINT (77.7370902 12.9779258)
Lone Star Crexcel Tuscany bangalore,1.15 Cr -1.80 Cr,2264-2365 sq.ft,3 BHK Apartment,1.15 Cr ,1.80 Cr,12.991444,77.615403,POINT (77.615403 12.991444)
M1 Terra Alegria bangalore,74.86 L -86.90 L,1826-1975 sq.ft,3 BHK Villa,74.86 L ,86.90 L,13.1042593,77.77487239999999,POINT (77.77487239999999 13.1042593)
MBR Shangri La bangalore,57 L -66 L,1003-1160 sq.ft,2 BHK Apartment,57 L ,66 L,12.9218502,77.4926026,POINT (77.4926026 12.9218502)
MBR Suave bangalore,75.11 L,1625 sq.ft,2 BHK Villa,75.11 L,0,13.0073616,77.7506585,POINT (77.7506585 13.0073616)
MDVR Byrathi Residency bangalore,38.20 L -44.40 L,955-1110 sq.ft,2 BHK Apartment,38.20 L ,44.40 L,13.0536883,77.6572283,POINT (77.6572283 13.0536883)
MJ Lifestyle Astro bangalore,36.45 L -41.85 L,972-1116 sq.ft,2 BHK Apartment,36.45 L ,41.85 L,12.858655,77.6984882,POINT (77.6984882 12.858655)
MJR Clique Hercules bangalore,40 L -40.05 L,704-711 sq.ft,1 BHK Apartment,40 L ,40.05 L,12.8297958,77.6660848,POINT (77.66608479999999 12.8297958)
MJR Clique Hydra bangalore,48.10 L,920 sq.ft,1.5 BHK Apartment,48.10 L,0,12.8294758,77.6661048,POINT (77.6661048 12.8294758)
MN Guru Akshitha bangalore,46.13 L -55 L,1073-1139 sq.ft,2 BHK Apartment,46.13 L ,55 L,13.092666,77.63287,POINT (77.63287 13.092666)
MN Guru Gokulam bangalore,43.48 L -49.53 L,1115-1270 sq.ft,2 BHK Apartment,43.48 L ,49.53 L,13.0927842,77.6324403,POINT (77.6324403 13.0927842)
MS Royal Sunnyvale bangalore,34 L,735 sq.ft,1 BHK Apartment,34 L,0,12.7384134,77.70856660000001,POINT (77.70856660000001 12.7384134)
MV Vajra Value Plus bangalore,49.27 L -51.52 L,1095-1145 sq.ft,2 BHK Apartment,49.27 L ,51.52 L,12.879664,77.55231669999999,POINT (77.55231669999999 12.879664)
Maangalya Prosper Apartment bangalore,55.95 L -60.72 L,1310-1404 sq.ft,2 BHK Apartment,55.95 L ,60.72 L,12.8652341,77.5576347,POINT (77.55763469999999 12.8652341)
Maarq Alpha bangalore,64.03 L,1306 sq.ft,2 BHK Apartment,64.03 L,0,12.9144324,77.70218369999999,POINT (77.70218369999999 12.9144324)
Mahaveer Carnation bangalore,56.23 L -60.51 L,1202-1285 sq.ft,2 BHK Apartment,56.23 L ,60.51 L,12.9666845,77.59954599999999,POINT (77.59954599999999 12.9666845)
Mahaveer Celesse bangalore,26.84 L -28.88 L,621-672 sq.ft,1 BHK Apartment,26.84 L ,28.88 L,13.1500949,77.61794379999999,POINT (77.61794379999999 13.1500949)
Mahaveer Cygnet bangalore,73.93 L -74.23 L,1479-1485 sq.ft,2.5 BHK Apartment,73.93 L ,74.23 L,13.1024979,77.61716299999999,POINT (77.61716299999999 13.1024979)
Mahaveer Jasper bangalore,56.38 L -82.32 L,1187-1200 sq.ft,2 BHK Apartment,56.38 L ,82.32 L,12.8827394,77.5861908,POINT (77.5861908 12.8827394)
Mahaveer Palatium bangalore,1 Cr -1.24 Cr,1470-1558 sq.ft,2 BHK Apartment,1 Cr ,1.24 Cr,12.7579595,77.6143312,POINT (77.6143312 12.7579595)
Mahaveer Promenade bangalore,80.02 L -88 L,1200-1311 sq.ft,2 BHK Apartment,80.02 L ,88 L,13.0077592,77.7399015,POINT (77.7399015 13.0077592)
Mahaveer Ranches bangalore,49.38 L -70 L,853 sq.ft,1 BHK Apartment,49.38 L ,70 L,12.8783657,77.6708668,POINT (77.6708668 12.8783657)
Mahaveer Riviera bangalore,85 L -1.06 Cr,1255-1280 sq.ft,2 BHK Apartment,85 L ,1.06 Cr,12.8930968,77.5883631,POINT (77.5883631 12.8930968)
Mahaveer Sitara bangalore,1.06 Cr -1.74 Cr,1434 sq.ft,2 BHK Apartment,1.06 Cr ,1.74 Cr,12.8937,77.5866427,POINT (77.5866427 12.8937)
Mahaveer Turquoise bangalore,1.10 Cr -1.12 Cr,2319 sq.ft,3 BHK Apartment,1.10 Cr ,1.12 Cr,12.8672756,77.64419319999999,POINT (77.64419319999999 12.8672756)
Mahaveer Zephyr bangalore,49.74 L -68.08 L,1044-1263 sq.ft,2 BHK Apartment,49.74 L ,68.08 L,12.900891,77.6193205,POINT (77.6193205 12.900891)
Mahendra Aarna bangalore,45.98 L -77.53 L,1045-1110 sq.ft,2 BHK Apartment,45.98 L ,77.53 L,12.8348265,77.6910718,POINT (77.6910718 12.8348265)
Mahindra Lifespace Windchimes Phase II bangalore,60 L -69 L,1142-1225 sq.ft,2 BHK Apartment,60 L ,69 L,12.88624,77.597681,POINT (77.59768099999999 12.88624)
Mahindra Lifespace Windchimes bangalore,1.38 Cr -2.31 Cr,1776-1792 sq.ft,3 BHK Apartment,1.38 Cr ,2.31 Cr,12.88624,77.597681,POINT (77.59768099999999 12.88624)
Mana Candela bangalore,35 L,697 sq.ft,1 BHK Apartment,35 L,0,12.8915171,77.71009699999999,POINT (77.71009699999999 12.8915171)
Mana Foliage bangalore,26.50 L -35 L,726 sq.ft,2 BHK Apartment,26.50 L ,35 L,12.834063,77.74269489999999,POINT (77.74269489999999 12.834063)
Mana Karmel bangalore,44.71 L -50.02 L,1028-1150 sq.ft,2 BHK Apartment,44.71 L ,50.02 L,12.8955387,77.70596619999999,POINT (77.70596619999999 12.8955387)
Mana Tropicale bangalore,40 L,771 sq.ft,0.5 BHK Apartment,40 L,0,12.8800875,77.69287159999999,POINT (77.69287159999999 12.8800875)
Mantri Centrium bangalore,26 L -41.64 L,615-985 sq.ft,1 BHK Apartment,26 L ,41.64 L,13.0040638,77.56184850000001,POINT (77.56184850000001 13.0040638)
Mantri Energia bangalore,89.58 L,1355 sq.ft,2 BHK Apartment,89.58 L,0,13.0543825,77.61948389999999,POINT (77.61948389999999 13.0543825)
Mantri Espana bangalore,2 Cr -2.78 Cr,2635 sq.ft,3 BHK Apartment,2 Cr ,2.78 Cr,12.9344706,77.68350629999999,POINT (77.68350629999999 12.9344706)
Mantri Flora bangalore,1.43 Cr -20 Cr,1859-2160 sq.ft,3 BHK Apartment,1.43 Cr ,20 Cr,12.9183563,77.6650713,POINT (77.66507129999999 12.9183563)
Mantri Lithos bangalore,34 L -42.80 L,800-875 sq.ft,2 BHK Apartment,34 L ,42.80 L,13.0544515,77.6194419,POINT (77.6194419 13.0544515)
Mantri Serenity bangalore,62 L -1 Cr,1025-1260 sq.ft,2 BHK Apartment,62 L ,1 Cr,12.8869436,77.55137359999999,POINT (77.55137359999999 12.8869436)
Mantri Tranquil bangalore,69 L -95 L,1270-1285 sq.ft,2 BHK Apartment,69 L ,95 L,12.8867375,77.5451932,POINT (77.5451932 12.8867375)
Mantri Webcity bangalore,56.90 L -92.50 L,950-1010 sq.ft,2 BHK Apartment,56.90 L ,92.50 L,13.0735045,77.6511247,POINT (77.6511247 13.0735045)
Master Classic Residency bangalore,61.01 L -65.78 L,1195-1296 sq.ft,2 BHK Apartment,61.01 L ,65.78 L,13.0925662,77.5998497,POINT (77.59984969999999 13.0925662)
Maysons Udbhava bangalore,2.65 Cr,4216 sq.ft,4 BHK RowHouse,2.65 Cr,0,13.0877551,77.6038995,POINT (77.6038995 13.0877551)
Meda Eternity bangalore,47.04 L -52.01 L,1020-1085 sq.ft,2 BHK Apartment,47.04 L ,52.01 L,13.0289204,77.7079727,POINT (77.7079727 13.0289204)
Meda Greens bangalore,59.97 L -75 L,1126-1388 sq.ft,2 BHK Apartment,59.97 L ,75 L,12.9206595,77.4926622,POINT (77.4926622 12.9206595)
Midtown Raaga bangalore,35 L -53 L,888-944 sq.ft,2 BHK Apartment,35 L ,53 L,13.0045009,77.7300865,POINT (77.7300865 13.0045009)
Midtown Rhythm bangalore,45 L,695 sq.ft,1 BHK Apartment,45 L,0,12.960095,77.741935,POINT (77.741935 12.960095)
Millennia Montagna bangalore,36.95 L -53 L,1103-1317 sq.ft,2 BHK Apartment,36.95 L ,53 L,12.9715987,77.5945627,POINT (77.5945627 12.9715987)
Mittal Elanza bangalore,60 L -77.27 L,1195-1210 sq.ft,2 BHK Apartment,60 L ,77.27 L,13.1036043,77.6208274,POINT (77.6208274 13.1036043)
Motzkin Park Terrace bangalore,63.25 L -90 L,1150-1280 sq.ft,2 BHK Apartment,63.25 L ,90 L,12.8277163,77.77764979999999,POINT (77.77764979999999 12.8277163)
Myhna Maple bangalore,2.44 Cr -4.41 Cr,2900 sq.ft,3 BHK Villa,2.44 Cr ,4.41 Cr,12.934066,77.74157699999999,POINT (77.74157699999999 12.934066)
Mythri Arteor bangalore,1.35 Cr -1.60 Cr,1950 sq.ft,3 BHK Apartment,1.35 Cr ,1.60 Cr,12.8874178,77.6294089,POINT (77.6294089 12.8874178)
NBR Green Valley bangalore,55.89 L -57.45 L,1136-1170 sq.ft,2 BHK Apartment,55.89 L ,57.45 L,12.8162764,77.8628083,POINT (77.8628083 12.8162764)
NBR Trifecta bangalore,22.56 L -24.96 L,580-650 sq.ft,1 BHK Apartment,22.56 L ,24.96 L,12.8381526,77.8432415,POINT (77.8432415 12.8381526)
NCC Urban Green Province bangalore,75 L,1145 sq.ft,2 BHK Apartment,75 L,0,12.866571,77.7720839,POINT (77.7720839 12.866571)
NCN Swasthi bangalore,72.66 L -96.11 L,1274-1290 sq.ft,2 BHK Apartment,72.66 L ,96.11 L,13.0187542,77.63059489999999,POINT (77.63059489999999 13.0187542)
ND Around The Mangoes bangalore,2.53 Cr -3.07 Cr,2980-3420 sq.ft,3 BHK Villa,2.53 Cr ,3.07 Cr,12.9099636,77.60450949999999,POINT (77.60450949999999 12.9099636)
ND Magnolia Apartment bangalore,47.36 L -57.85 L,920-1145 sq.ft,2 BHK Apartment,47.36 L ,57.85 L,12.9745516,77.76798330000001,POINT (77.76798330000001 12.9745516)
NR Windgates bangalore,98 L -1.06 Cr,1290 sq.ft,2 BHK Apartment,98 L ,1.06 Cr,13.0859552,77.62378000000001,POINT (77.62378000000001 13.0859552)
NS Paradise Township bangalore,55.21 L -67.76 L,1070-1350 sq.ft,2 BHK Apartment,55.21 L ,67.76 L,13.0040017,77.717381,POINT (77.717381 13.0040017)
NVT Arcot Vaksana bangalore,96 L -1.28 Cr,1560-2000 sq.ft,3 BHK Villa,96 L ,1.28 Cr,12.8536467,77.7840279,POINT (77.7840279 12.8536467)
NVT Life Square bangalore,2.48 Cr,3565 sq.ft,4 BHK Villa,2.48 Cr,0,12.9754639,77.7639204,POINT (77.7639204 12.9754639)
NVT Mystic Garden bangalore,1.15 Cr,2292 sq.ft,3 BHK Apartment,1.15 Cr,0,12.7924016,77.7792542,POINT (77.7792542 12.7924016)
NYK Metro Urbano bangalore,15 L,1200 sq.ft,Plot,15 L,0,12.8919021,77.6376131,POINT (77.6376131 12.8919021)
Nagarjuna Maple Heights bangalore,8.14 Cr -9.35 Cr,3700-4250 sq.ft,4 BHK Apartment,8.14 Cr ,9.35 Cr,12.9935525,77.6838545,POINT (77.6838545 12.9935525)
Nambiar Bellezea bangalore,1.77 Cr,2446 sq.ft,3 BHK Villa,1.77 Cr,0,12.8423459,77.727032,POINT (77.72703199999999 12.8423459)
Nandi Citadel bangalore,59.66 L -71.67 L,1000-1050 sq.ft,2 BHK Apartment,59.66 L ,71.67 L,12.8613592,77.60688379999999,POINT (77.60688379999999 12.8613592)
Narmada Sri Heights bangalore,4 Cr,5476 sq.ft,4 BHK RowHouse,4 Cr,0,12.8737585,77.6677287,POINT (77.6677287 12.8737585)
Nava Vedantha bangalore,73.53 L -82.22 L,1337-1495 sq.ft,2 BHK Apartment,73.53 L ,82.22 L,13.0051219,77.6644468,POINT (77.66444679999999 13.0051219)
Navami Funique bangalore,55 L -56.73 L,1307 sq.ft,2 BHK Apartment,55 L ,56.73 L,12.8695931,77.6546046,POINT (77.6546046 12.8695931)
New Dawn bangalore,85.26 L -97.92 L,1750-2010 sq.ft,3 BHK Villa,85.26 L ,97.92 L,12.8640688,77.6979503,POINT (77.6979503 12.8640688)
New India Tanzanite bangalore,36.97 L -37.47 L,694 sq.ft,1 BHK Apartment,36.97 L ,37.47 L,13.1020363,77.6189762,POINT (77.61897620000001 13.1020363)
Niranjan Genesis bangalore,42 L,1152 sq.ft,2 BHK Apartment,42 L,0,12.8650822,77.6232727,POINT (77.6232727 12.8650822)
Niranjan Tridha bangalore,57.17 L -75.01 L,1166-1210 sq.ft,2 BHK Apartment,57.17 L ,75.01 L,12.8810058,77.63616139999999,POINT (77.63616139999999 12.8810058)
Nishant Prime bangalore,26.56 L -39.51 L,718-1068 sq.ft,2 BHK Apartment,26.56 L ,39.51 L,12.9665946,77.76514519999999,POINT (77.76514519999999 12.9665946)
Nitesh Caesars Palace bangalore,52 L,589 sq.ft,0.5 BHK Apartment,52 L,0,12.8776451,77.546492,POINT (77.546492 12.8776451)
Nitesh Cape Cod bangalore,74.32 L -97 L,1260-1470 sq.ft,2 BHK Apartment,74.32 L ,97 L,12.9224054,77.67501229999999,POINT (77.67501229999999 12.9224054)
Nitesh Hyde Park bangalore,46 L -69 L,969-978 sq.ft,2 BHK Apartment,46 L ,69 L,12.8717726,77.5979352,POINT (77.59793519999999 12.8717726)
Nitesh Rio bangalore,57 L -61.23 L,1240-1260 sq.ft,2 BHK Apartment,57 L ,61.23 L,12.8631579,77.535788,POINT (77.535788 12.8631579)
Northern Destiny bangalore,74.95 L -1.27 Cr,1265-1527 sq.ft,3 BHK Apartment,74.95 L ,1.27 Cr,13.1000006,77.63371990000002,POINT (77.63371990000002 13.1000006)
Oceanus Classic bangalore,38.39 L -55 L,1097-1230 sq.ft,2 BHK Apartment,38.39 L ,55 L,13.005386,77.73160519999999,POINT (77.73160519999999 13.005386)
Oceanus Tranquil bangalore,19.62 L -25.38 L,545-705 sq.ft,1 BHK Apartment,19.62 L ,25.38 L,13.0372514,77.6894379,POINT (77.6894379 13.0372514)
Opera Canopus bangalore,45.34 L -48 L,970-1005 sq.ft,2 BHK Apartment,45.34 L ,48 L,12.8872949,77.6214482,POINT (77.6214482 12.8872949)
Opera Spring Leaf bangalore,63.25 L -90 L,1150-1280 sq.ft,2 BHK Apartment,63.25 L ,90 L,12.8983834,77.61832369999999,POINT (77.61832369999999 12.8983834)
Orbis BVS Avenues bangalore,19.80 L -39.60 L,1200-2400 sq.ft,Apartment,19.80 L ,39.60 L,12.9582656,77.74662649999999,POINT (77.74662649999999 12.9582656)
Orchid Greens bangalore,48.81 L -77 L,1180 sq.ft,2 BHK Apartment,48.81 L ,77 L,13.0879221,77.6554441,POINT (77.6554441 13.0879221)
Orchid Piccadilly bangalore,52 L -83.66 L,1165 sq.ft,2 BHK Apartment,52 L ,83.66 L,13.0862364,77.6326754,POINT (77.6326754 13.0862364)
Ozone Evergreens bangalore,32.48 L -42.44 L,884-1155 sq.ft,2 BHK Apartment,32.48 L ,42.44 L,12.9088641,77.6628913,POINT (77.6628913 12.9088641)
Ozone Polestar bangalore,75.62 L -1.29 Cr,1252-1633 sq.ft,2 BHK Apartment,75.62 L ,1.29 Cr,13.0385196,77.6181119,POINT (77.6181119 13.0385196)
Ozone Urbana Avenue bangalore,58 L -62.50 L,1150-1250 sq.ft,2 BHK Apartment,58 L ,62.50 L,12.9757272,77.6158504,POINT (77.6158504 12.9757272)
Ozone Urbana Township bangalore,83.72 L -1.14 Cr,1650-1800 sq.ft,3 BHK Apartment,83.72 L ,1.14 Cr,13.2036001,77.6645319,POINT (77.6645319 13.2036001)
Ozone Urbana bangalore,54.70 L -57.50 L,1195-1250 sq.ft,2 BHK Apartment,54.70 L ,57.50 L,13.2032646,77.6635981,POINT (77.6635981 13.2032646)
Ozone WF48 bangalore,55.22 L -55.41 L,1127-1131 sq.ft,2 BHK Apartment,55.22 L ,55.41 L,12.9954655,77.6948322,POINT (77.69483219999999 12.9954655)
PSR Krish Kamal bangalore,50 L -70 L,1155-1310 sq.ft,2 BHK Apartment,50 L ,70 L,12.8404406,77.6435767,POINT (77.6435767 12.8404406)
Park Cubix bangalore,36 L,656 sq.ft,0.5 BHK Apartment,36 L,0,13.2418908,77.720995,POINT (77.720995 13.2418908)
Pashmina Lagoon Residences bangalore,16.80 L,600 sq.ft,Plot,16.80 L,0,13.0754163,77.7242591,POINT (77.7242591 13.0754163)
Pashmina Waterfront bangalore,81.78 L -2.22 Cr,1636-2082 sq.ft,3 BHK Apartment,81.78 L ,2.22 Cr,13.0244407,77.7116346,POINT (77.7116346 13.0244407)
Patel Smondo 2 bangalore,31.38 L,675 sq.ft,1 BHK Apartment,31.38 L,0,12.8217185,77.6598477,POINT (77.6598477 12.8217185)
Patel Smondoville bangalore,18 L -19 L,360 sq.ft,0.5 BHK Apartment,18 L ,19 L,12.8219467,77.65774549999999,POINT (77.65774549999999 12.8219467)
Pavani Divine bangalore,1 Cr -1.36 Cr,1452 sq.ft,2 BHK Apartment,1 Cr ,1.36 Cr,12.9831056,77.7181327,POINT (77.7181327 12.9831056)
Pavani Sarovar Phase II bangalore,65 L -73.21 L,1195-1300 sq.ft,2 BHK Apartment,65 L ,73.21 L,12.9726354,77.7340972,POINT (77.73409719999999 12.9726354)
Pavani Sarovar bangalore,4.65 Cr -5.43 Cr,4332-4622 sq.ft,4 BHK Apartment,4.65 Cr ,5.43 Cr,12.9726354,77.7340972,POINT (77.73409719999999 12.9726354)
Peace Rhythm bangalore,43.20 L -53.25 L,1029-1268 sq.ft,2 BHK Apartment,43.20 L ,53.25 L,12.9500313,77.4978003,POINT (77.49780029999999 12.9500313)
Peninsula Heights bangalore,3.22 Cr -4.50 Cr,3240-3890 sq.ft,3 BHK Apartment,3.22 Cr ,4.50 Cr,12.915558,77.592652,POINT (77.592652 12.915558)
Peninsula Prakruthi bangalore,79.80 L -1.20 Cr,1451-2103 sq.ft,3 BHK Villa,79.80 L ,1.20 Cr,12.8732821,77.787371,POINT (77.78737099999999 12.8732821)
Peninsula Solitaire bangalore,71.45 L -75.73 L,1203-1275 sq.ft,2 BHK Apartment,71.45 L ,75.73 L,12.8657356,77.8052447,POINT (77.8052447 12.8657356)
Peram's Eco City bangalore,35 L,765 sq.ft,1 BHK Apartment,35 L,0,13.130345,77.8254697,POINT (77.8254697 13.130345)
Phoenix One Bangalore West bangalore,78 L -87 L,1135-1285 sq.ft,2 BHK Apartment,78 L ,87 L,13.0097168,77.5540958,POINT (77.5540958 13.0097168)
Pioneer KRS Park Royal bangalore,82 L -1.15 Cr,1365-1390 sq.ft,2 BHK Apartment,82 L ,1.15 Cr,12.9293554,77.4995552,POINT (77.4995552 12.9293554)
Pioneer Kingstown bangalore,49 L -68 L,1092-1260 sq.ft,2 BHK Apartment,49 L ,68 L,12.8878665,77.6441936,POINT (77.64419359999999 12.8878665)
Pioneer Park Avenue bangalore,62.30 L -80 L,1204-1260 sq.ft,2 BHK Apartment,62.30 L ,80 L,12.875964,77.55190499999999,POINT (77.55190499999999 12.875964)
Pioneer Sun Blossom bangalore,42.99 L,1190 sq.ft,2 BHK Apartment,42.99 L,0,12.8348947,77.648506,POINT (77.648506 12.8348947)
Pionier Lifestyle bangalore,52.56 L -58.80 L,1095-1225 sq.ft,2 BHK Apartment,52.56 L ,58.80 L,12.8728757,77.69595129999999,POINT (77.69595129999999 12.8728757)
Plama Heights bangalore,65.52 L -1.07 Cr,1092-1118 sq.ft,2 BHK Apartment,65.52 L ,1.07 Cr,13.0334447,77.6374762,POINT (77.63747619999999 13.0334447)
Platina Exotica bangalore,54.97 L -61.81 L,1285-1460 sq.ft,2 BHK Apartment,54.97 L ,61.81 L,12.9275441,77.4936815,POINT (77.49368149999999 12.9275441)
Poorvi Shreenivasa Grand bangalore,1.70 Cr -2.20 Cr,1910-2100 sq.ft,3 BHK Apartment,1.70 Cr ,2.20 Cr,12.885729,77.537075,POINT (77.537075 12.885729)
Prabhavathi Comforts bangalore,33.39 L -41.82 L,954-1195 sq.ft,2 BHK Apartment,33.39 L ,41.82 L,12.8864112,77.6290643,POINT (77.6290643 12.8864112)
Prabhavathi Divine bangalore,18 L -24.50 L,500 sq.ft,1 BHK Apartment,18 L ,24.50 L,12.8787211,77.6110659,POINT (77.6110659 12.8787211)
Pramuk MM Meridian bangalore,67.92 L -89.49 L,1132 sq.ft,2 BHK Apartment,67.92 L ,89.49 L,12.93025,77.5751633,POINT (77.5751633 12.93025)
Pranavas BSR Gitaaar bangalore,67.37 L -75.95 L,1225-1381 sq.ft,2 BHK Apartment,67.37 L ,75.95 L,12.9422451,77.70145169999999,POINT (77.70145169999999 12.9422451)
Premier Inspira Maplewood bangalore,60 L -83.97 L,1168-1369 sq.ft,2 BHK Apartment,60 L ,83.97 L,12.9054239,77.6993194,POINT (77.69931939999999 12.9054239)
Prestige Bagamane Temple Bells bangalore,32.65 L -43 L,628-648 sq.ft,1 BHK Apartment,32.65 L ,43 L,12.9307632,77.5217595,POINT (77.5217595 12.9307632)
Prestige Deja Vu bangalore,3.36 Cr -4.30 Cr,2775-2797 sq.ft,3 BHK Apartment,3.36 Cr ,4.30 Cr,12.9957229,77.6079918,POINT (77.60799179999999 12.9957229)
Prestige Dolce Vita bangalore,75.68 L -97 L,1272 sq.ft,2 BHK Apartment,75.68 L ,97 L,12.9757496,77.7425161,POINT (77.7425161 12.9757496)
Prestige Falcon City bangalore,65.81 L -1.16 Cr,1230-1274 sq.ft,2 BHK Apartment,65.81 L ,1.16 Cr,12.885663,77.56377499999999,POINT (77.56377499999999 12.885663)
Prestige Ferns Residency bangalore,73.97 L -1.10 Cr,1193 sq.ft,2 BHK Apartment,73.97 L ,1.10 Cr,12.9029705,77.66220729999999,POINT (77.66220729999999 12.9029705)
Prestige Fontaine Bleau bangalore,46.75 L -69.68 L,955-1480 sq.ft,2 BHK Apartment,46.75 L ,69.68 L,12.9757829,77.7417992,POINT (77.7417992 12.9757829)
Prestige Glenwood bangalore,24 L -32 L,635-649 sq.ft,1 BHK Apartment,24 L ,32 L,13.0767319,77.7341204,POINT (77.73412039999999 13.0767319)
Prestige Gulmohar bangalore,82 L,1208 sq.ft,Plot,82 L,0,13.0288528,77.6649757,POINT (77.6649757 13.0288528)
Prestige Jade Pavillion bangalore,1.01 Cr -1.12 Cr,1358-1360 sq.ft,2 BHK Apartment,1.01 Cr ,1.12 Cr,12.9216881,77.6956648,POINT (77.6956648 12.9216881)
Prestige Jindal City bangalore,1.58 Cr -2.17 Cr,2640-3140 sq.ft,3 BHK Apartment,1.58 Cr ,2.17 Cr,13.0542876,77.48404239999999,POINT (77.48404239999999 13.0542876)
Prestige Kenilworth bangalore,43.39 L,966-1445 sq.ft,2 BHK Apartment,43.39 L,0,12.9902606,77.5961311,POINT (77.59613109999999 12.9902606)
Prestige Kew Gardens bangalore,2.10 Cr -4.18 Cr,2850-3258 sq.ft,3 BHK Apartment,2.10 Cr ,4.18 Cr,12.9481617,77.68094119999999,POINT (77.68094119999999 12.9481617)
Prestige Lake Ridge bangalore,36 L,661 sq.ft,0.5 BHK Apartment,36 L,0,12.8968323,77.54116719999999,POINT (77.54116719999999 12.8968323)
Prestige Lakeside Habitat Villa bangalore,55 L -93 L,1190-1365 sq.ft,2 BHK Apartment,55 L ,93 L,12.9299576,77.7401083,POINT (77.7401083 12.9299576)
Prestige Lakeside Habitat bangalore,49.11 L -61.33 L,1045-1105 sq.ft,2 BHK Apartment,49.11 L ,61.33 L,12.9299576,77.7401083,POINT (77.7401083 12.9299576)
Prestige Laughing Waters bangalore,87.97 L -89.10 L,1333-1350 sq.ft,2 BHK Apartment,87.97 L ,89.10 L,12.9602478,77.73795679999999,POINT (77.73795679999999 12.9602478)
Prestige Leela Residences bangalore,6.14 Cr -6.19 Cr,3073-3099 sq.ft,3 BHK Apartment,6.14 Cr ,6.19 Cr,12.9604699,77.6500106,POINT (77.6500106 12.9604699)
Prestige Misty Waters phase 1 bangalore,85.57 L -1.20 Cr,1134-1141 sq.ft,2 BHK Apartment,85.57 L ,1.20 Cr,13.046145,77.60162199999999,POINT (77.60162199999999 13.046145)
Prestige Notting Hill bangalore,3.90 Cr -6.34 Cr,3900-4500 sq.ft,4 BHK Villa,3.90 Cr ,6.34 Cr,12.8726581,77.5945658,POINT (77.5945658 12.8726581)
Prestige Ozone bangalore,22.50 L,1200 sq.ft,Plot,22.50 L,0,12.9590509,77.7494998,POINT (77.7494998 12.9590509)
Prestige Palms bangalore,39.31 L -43.05 L,936-1025 sq.ft,2 BHK Apartment,39.31 L ,43.05 L,12.9805009,77.74359869999999,POINT (77.74359869999999 12.9805009)
Prestige Park Square bangalore,59.61 L -82.15 L,1015-1270 sq.ft,2 BHK Apartment,59.61 L ,82.15 L,12.8469172,77.58784519999999,POINT (77.58784519999999 12.8469172)
Prestige Park View bangalore,89.06 L -96 L,1220-1272 sq.ft,2 BHK Apartment,89.06 L ,96 L,12.9852588,77.75189180000001,POINT (77.75189180000001 12.9852588)
Prestige Pine Wood bangalore,1.61 Cr -2.22 Cr,1249 sq.ft,2 BHK Apartment,1.61 Cr ,2.22 Cr,12.9312272,77.63458670000001,POINT (77.63458670000001 12.9312272)
Prestige Royal Garden 1 bangalore,35.91 L -48.26 L,945-1270 sq.ft,2 BHK Apartment,35.91 L ,48.26 L,13.1395085,77.57063950000001,POINT (77.57063950000001 13.1395085)
Prestige Royal Garden 2 bangalore,62.11 L -81 L,1071 sq.ft,2 BHK Apartment,62.11 L ,81 L,13.1395085,77.57063950000001,POINT (77.57063950000001 13.1395085)
Prestige Royale Gardens bangalore,39.25 L -45.50 L,1050-1065 sq.ft,2 BHK Apartment,39.25 L ,45.50 L,13.1395085,77.57063950000001,POINT (77.57063950000001 13.1395085)
Prestige Shantiniketan bangalore,2.90 Cr,2475 sq.ft,2 BHK Apartment,2.90 Cr,0,12.989259,77.731264,POINT (77.731264 12.989259)
Prestige Silver Sun bangalore,79.36 L -1.12 Cr,1221-1230 sq.ft,2 BHK Apartment,79.36 L ,1.12 Cr,12.9241916,77.6961269,POINT (77.6961269 12.9241916)
Prestige Song Of The South bangalore,36 L -44.55 L,644 sq.ft,1 BHK Apartment,36 L ,44.55 L,12.8620814,77.6137471,POINT (77.6137471 12.8620814)
Prestige Spencer Heights bangalore,3.98 Cr -4.20 Cr,2372-2387 sq.ft,3 BHK Apartment,3.98 Cr ,4.20 Cr,12.9956569,77.6104792,POINT (77.6104792 12.9956569)
Prestige Sunrise Park Brichwood bangalore,1.85 Cr -3.93 Cr,2040-2245 sq.ft,3 BHK Villa,1.85 Cr ,3.93 Cr,12.8321675,77.6632722,POINT (77.66327219999999 12.8321675)
Prestige Sunrise Park Norwood bangalore,37 L -51.48 L,937-1320 sq.ft,2 BHK Apartment,37 L ,51.48 L,12.8345846,77.6635615,POINT (77.6635615 12.8345846)
Prestige Tranquility bangalore,36 L -42 L,664-722 sq.ft,1 BHK Apartment,36 L ,42 L,13.0655118,77.743832,POINT (77.743832 13.0655118)
Prestige West Woods bangalore,37.99 L,1160 sq.ft,1 BHK Apartment,37.99 L,0,12.9776982,77.5647402,POINT (77.5647402 12.9776982)
Prestige White Meadows bangalore,31.46 L -36.20 L,671-772 sq.ft,1 BHK Apartment,31.46 L ,36.20 L,12.9751074,77.7527258,POINT (77.75272579999999 12.9751074)
Pride Enchanta Phase II bangalore,21.99 L -21.99 L,475 sq.ft,1 BHK Apartment,21.99 L ,21.99 L,12.9478889,77.5353712,POINT (77.5353712 12.9478889)
Pride Sunrise bangalore,62.98 L -78.89 L,940-1200 sq.ft,2 BHK Apartment,62.98 L ,78.89 L,12.8754555,77.6032484,POINT (77.6032484 12.8754555)
Prisha Orchids bangalore,89.49 L -1.01 Cr,1440-1630 sq.ft,2 BHK Apartment,89.49 L ,1.01 Cr,13.0833854,77.6375082,POINT (77.6375082 13.0833854)
Prodaacon Mounika Espancia bangalore,86 L -90 L,1150-1200 sq.ft,2 BHK Apartment,86 L ,90 L,13.0371268,77.6643917,POINT (77.6643917 13.0371268)
Provident Harmony bangalore,66 L -75.53 L,1241 sq.ft,3 BHK Apartment,66 L ,75.53 L,13.080659,77.625441,POINT (77.625441 13.080659)
Provident Park Square Phase I bangalore,38.47 L -55.82 L,1135-1419 sq.ft,2 BHK Apartment,38.47 L ,55.82 L,12.8636392,77.5406447,POINT (77.5406447 12.8636392)
Provident Park Square Phase II bangalore,33.52 L -38.82 L,1265-1465 sq.ft,2 BHK Apartment,33.52 L ,38.82 L,12.8636392,77.5406447,POINT (77.5406447 12.8636392)
Provident Rays Of Dawn bangalore,92 L -1.37 Cr,1216-1408 sq.ft,2 BHK Apartment,92 L ,1.37 Cr,12.8816933,77.47161009999999,POINT (77.47161009999999 12.8816933)
Provident Sunworth bangalore,34.75 L -52 L,883 sq.ft,2 BHK Apartment,34.75 L ,52 L,12.8818045,77.4705858,POINT (77.47058579999999 12.8818045)
Provident The Tree bangalore,57.57 L -73 L,998-1162 sq.ft,2 BHK Apartment,57.57 L ,73 L,12.9960104,77.48484119999999,POINT (77.48484119999999 12.9960104)
Provident WelWorth City bangalore,46.38 L -51.98 L,1160-1300 sq.ft,2 BHK Apartment,46.38 L ,51.98 L,13.2293032,77.5480973,POINT (77.54809729999999 13.2293032)
Pruthvi Royal bangalore,26.83 L -27.60 L,801-824 sq.ft,1 BHK Apartment,26.83 L ,27.60 L,12.8627337,77.5943649,POINT (77.5943649 12.8627337)
Puravankara Elita Promenade bangalore,39.31 L -55.26 L,1092-1535 sq.ft,2 BHK Apartment,39.31 L ,55.26 L,12.8505636,77.6019434,POINT (77.6019434 12.8505636)
Puravankara Purva Fountain Square bangalore,90 L -1.15 Cr,1336-1466 sq.ft,2 BHK Apartment,90 L ,1.15 Cr,12.9748291,77.61898699999999,POINT (77.61898699999999 12.9748291)
Puravankara Purva Riviera bangalore,84.08 L -8.60 Cr,1117-1350 sq.ft,2 BHK Apartment,84.08 L ,8.60 Cr,12.9758193,77.5570922,POINT (77.5570922 12.9758193)
Purnima Palmgrove bangalore,36.12 L -46.75 L,850-1100 sq.ft,2 BHK Apartment,36.12 L ,46.75 L,12.963659,77.61464869999999,POINT (77.61464869999999 12.963659)
Purva City of Gold bangalore,7 L -86 L,953-970 sq.ft,2 BHK Apartment,7 L ,86 L,12.887104,77.5521255,POINT (77.5521255 12.887104)
Purva Coronation Square bangalore,65.42 L -72.50 L,1135-1190 sq.ft,2 BHK Apartment,65.42 L ,72.50 L,12.8953453,77.5795323,POINT (77.5795323 12.8953453)
Purva Highland bangalore,53.92 L -72.94 L,1042-1105 sq.ft,2 BHK Apartment,53.92 L ,72.94 L,12.8539676,77.54460170000002,POINT (77.54460170000002 12.8539676)
Purva Northern Waves bangalore,62 L -1.26 Cr,1232-1348 sq.ft,2 BHK Apartment,62 L ,1.26 Cr,13.0630984,77.66295629999999,POINT (77.66295629999999 13.0630984)
Purva Palm Beach bangalore,69.60 L -1.31 Cr,1232-1346 sq.ft,2 BHK Apartment,69.60 L ,1.31 Cr,13.0631903,77.66260249999999,POINT (77.66260249999999 13.0631903)
Purva Seasons bangalore,49 L -52 L,1075-1145 sq.ft,2 BHK Apartment,49 L ,52 L,12.9878209,77.6668541,POINT (77.66685409999999 12.9878209)
Purva Skydale bangalore,76.25 L -1.75 Cr,1273-1371 sq.ft,2 BHK Apartment,76.25 L ,1.75 Cr,12.894033,77.66236169999999,POINT (77.66236169999999 12.894033)
Purva Skywood bangalore,49.56 L -60 L,1239-1269 sq.ft,2 BHK Apartment,49.56 L ,60 L,12.8944929,77.6607174,POINT (77.6607174 12.8944929)
Purva Sunflower bangalore,45 L -48 L,883 sq.ft,2 BHK Apartment,45 L ,48 L,12.9758193,77.5570922,POINT (77.5570922 12.9758193)
Purva The Sound Of Water bangalore,46.45 L -50.30 L,1028 sq.ft,2 BHK Apartment,46.45 L ,50.30 L,12.8505636,77.6019434,POINT (77.6019434 12.8505636)
Purva Venezia bangalore,71.58 L -79 L,1267-1327 sq.ft,2 BHK Apartment,71.58 L ,79 L,13.0972391,77.57029750000001,POINT (77.57029750000001 13.0972391)
Purva Waves bangalore,76.16 L -98.25 L,1232 sq.ft,2 BHK Apartment,76.16 L ,98.25 L,13.063187,77.66269969999999,POINT (77.66269969999999 13.063187)
Purva Westend bangalore,68 L -1 Cr,1194-1336 sq.ft,2 BHK Apartment,68 L ,1 Cr,12.89072,77.63837459999999,POINT (77.63837459999999 12.89072)
Purva Whitehall bangalore,48.72 L -57.24 L,1160-1215 sq.ft,2 BHK Apartment,48.72 L ,57.24 L,12.9170738,77.6722151,POINT (77.6722151 12.9170738)
Pyramid Bilberry bangalore,28.22 L -50.27 L,664-1183 sq.ft,2 BHK Apartment,28.22 L ,50.27 L,13.0873611,77.6247607,POINT (77.6247607 13.0873611)
Pyramid Carnations bangalore,68.92 L -1.05 Cr,1436-2200 sq.ft,2 BHK Apartment,68.92 L ,1.05 Cr,13.1351114,77.5622471,POINT (77.56224709999999 13.1351114)
RBD Stillwaters bangalore,46.51 L -49 L,1052-1090 sq.ft,2 BHK Apartment,46.51 L ,49 L,12.8945651,77.6632973,POINT (77.6632973 12.8945651)
RJ Brooke Square bangalore,1.72 Cr -2.40 Cr,2300-3200 sq.ft,3 BHK Villament,1.72 Cr ,2.40 Cr,12.9649561,77.7203535,POINT (77.7203535 12.9649561)
RJ Lake Gardenia bangalore,1.13 Cr -1.21 Cr,2068-2203 sq.ft,3 BHK Apartment,1.13 Cr ,1.21 Cr,13.018249,77.707173,POINT (77.707173 13.018249)
RJR Patel Residency bangalore,11.13 L,530 sq.ft,1 BHK Apartment,11.13 L,0,12.93844,77.7431417,POINT (77.7431417 12.93844)
RNS Shrinikethan bangalore,1.65 Cr,1840 sq.ft,3 BHK Apartment,1.65 Cr,0,13.0321173,77.5388378,POINT (77.5388378 13.0321173)
RS Sanchike bangalore,42.48 L -43.77 L,1118-1152 sq.ft,2 BHK Apartment,42.48 L ,43.77 L,12.9232226,77.4780692,POINT (77.47806919999999 12.9232226)
Radiant Elitaire bangalore,46.99 L -62 L,1200-1285 sq.ft,2 BHK Apartment,46.99 L ,62 L,12.8830931,77.5830352,POINT (77.5830352 12.8830931)
Radiant Lake View bangalore,29.03 L -32.82 L,575-650 sq.ft,1 BHK Apartment,29.03 L ,32.82 L,13.0320876,77.7210642,POINT (77.7210642 13.0320876)
Raheja Residency bangalore,90 L -1.27 Cr,1070-1200 sq.ft,2 BHK Apartment,90 L ,1.27 Cr,12.928366,77.6317759,POINT (77.63177589999999 12.928366)
Raja Aristos bangalore,63.25 L -74 L,1255-1375 sq.ft,2 BHK Apartment,63.25 L ,74 L,12.8639286,77.5981177,POINT (77.5981177 12.8639286)
Rajarajeshwari Parasmani Regency   bangalore,1.59 Cr -1.85 Cr,1500-1750 sq.ft,2 BHK Apartment,1.59 Cr ,1.85 Cr,12.9404754,77.58134650000001,POINT (77.58134650000001 12.9404754)
Rajarajeshwari Vara bangalore,23.62 L -39.09 L,675-1117 sq.ft,2 BHK Apartment,23.62 L ,39.09 L,12.981788,77.5998037,POINT (77.5998037 12.981788)
Ramky One North bangalore,45.10 L -52 L,1100-1145 sq.ft,2 BHK Apartment,45.10 L ,52 L,13.1361505,77.5706196,POINT (77.5706196 13.1361505)
Rand Pride Homes bangalore,37.76 L,821 sq.ft,1 BHK Apartment,37.76 L,0,12.9780797,77.69299070000001,POINT (77.69299070000001 12.9780797)
Raynal Gardens bangalore,41 L,630 sq.ft,1 BHK Apartment,41 L,0,12.9767323,77.5148708,POINT (77.5148708 12.9767323)
Regency Pinnacle Heights bangalore,45.24 L,1300 sq.ft,2 BHK Apartment,45.24 L,0,13.0624834,77.626811,POINT (77.626811 13.0624834)
Reliaable Dollar Colony bangalore,45 L -63.19 L,1082-1277 sq.ft,2 BHK Apartment,45 L ,63.19 L,12.8681733,77.6951194,POINT (77.6951194 12.8681733)
Relizant Royale bangalore,41.99 L -44.46 L,1105-1170 sq.ft,2 BHK Apartment,41.99 L ,44.46 L,12.957703,77.5758522,POINT (77.5758522 12.957703)
Rohan Akriti bangalore,75 L -1.02 Cr,1133-1265 sq.ft,2 BHK Apartment,75 L ,1.02 Cr,12.8904448,77.538187,POINT (77.53818699999999 12.8904448)
Rohan Iksha bangalore,79 L -84.26 L,1446-1506 sq.ft,3 BHK Apartment,79 L ,84.26 L,12.9266782,77.6990608,POINT (77.6990608 12.9266782)
Rohan Vasantha bangalore,85.48 L -89.48 L,1175-1230 sq.ft,2 BHK Apartment,85.48 L ,89.48 L,12.9568204,77.7070217,POINT (77.7070217 12.9568204)
Roma Epicurean bangalore,48.87 L -52.27 L,1150-1230 sq.ft,2 BHK Apartment,48.87 L ,52.27 L,12.9671,77.7347721,POINT (77.7347721 12.9671)
Royale Township bangalore,23.43 L -27.37 L,868-1014 sq.ft,2 BHK Apartment,23.43 L ,27.37 L,13.087926,77.4458392,POINT (77.44583919999999 13.087926)
Rsun Sushmitham bangalore,58.42 L -68.21 L,1270-1483 sq.ft,2 BHK Apartment,58.42 L ,68.21 L,12.9890574,77.7659146,POINT (77.7659146 12.9890574)
Ruchira Aarna Homes bangalore,3.22 Cr -4.46 Cr,4250-5950 sq.ft,4 BHK Villa,3.22 Cr ,4.46 Cr,12.9647206,77.75527939999999,POINT (77.75527939999999 12.9647206)
S2 Homes The Water Grove bangalore,49.20 L -61.51 L,1097-1162 sq.ft,2 BHK Apartment,49.20 L ,61.51 L,12.8368015,77.6871048,POINT (77.6871048 12.8368015)
SGS Silver Oak bangalore,35.56 L -38.08 L,1031-1104 sq.ft,2 BHK Apartment,35.56 L ,38.08 L,12.915705,77.54865029999999,POINT (77.54865029999999 12.915705)
SJR Blue Waters bangalore,22.50 L -23.97 L,683-685 sq.ft,2 BHK Apartment,22.50 L ,23.97 L,12.8847986,77.6675021,POINT (77.66750209999999 12.8847986)
SJR Hamilton Homes bangalore,56.77 L -62 L,1100-1185 sq.ft,2 BHK Apartment,56.77 L ,62 L,12.8654578,77.6976643,POINT (77.6976643 12.8654578)
SJR Palazza City bangalore,47 L,702 sq.ft,0.5 BHK Apartment,47 L,0,12.9046539,77.6984995,POINT (77.6984995 12.9046539)
SJR WaterMark bangalore,74 L -85 L,1105-1152 sq.ft,2 BHK Apartment,74 L ,85 L,12.9132624,77.6704345,POINT (77.6704345 12.9132624)
SK Daisy bangalore,38.25 L -38.74 L,1093-1107 sq.ft,2 BHK Apartment,38.25 L ,38.74 L,12.832197,77.64891899999999,POINT (77.64891899999999 12.832197)
SKS Garden bangalore,3.74 Cr -4.69 Cr,3764 sq.ft,4+ BHK Apartment,3.74 Cr ,4.69 Cr,12.9715987,77.5945627,POINT (77.5945627 12.9715987)
SLS Square bangalore,63.76 L -80 L,1109-1285 sq.ft,2 BHK Apartment,63.76 L ,80 L,12.9719967,77.7153684,POINT (77.7153684 12.9719967)
SLV Central park bangalore,30 L -55 L,1025-1070 sq.ft,2 BHK Apartment,30 L ,55 L,13.0371494,77.7517183,POINT (77.75171829999999 13.0371494)
SLV Diamond bangalore,58.74 L -72.06 L,1200-1281 sq.ft,2 BHK Apartment,58.74 L ,72.06 L,13.0375445,77.63589259999999,POINT (77.63589259999999 13.0375445)
SLV Lakshmi Narayana Nilaya bangalore,53.26 L -63.65 L,1027-1284 sq.ft,2 BHK Apartment,53.26 L ,63.65 L,12.997227,77.621871,POINT (77.621871 12.997227)
SLV Magnum bangalore,46.22 L -50.95 L,1075-1185 sq.ft,2 BHK Apartment,46.22 L ,50.95 L,12.9108838,77.62421280000001,POINT (77.62421280000001 12.9108838)
SLV Pragathi Amber bangalore,35 L -35.37 L,605 sq.ft,1 BHK Apartment,35 L ,35.37 L,12.8363904,77.69773719999999,POINT (77.69773719999999 12.8363904)
SMD Altezz bangalore,58.48 L -59.40 L,1300-1320 sq.ft,2 BHK Apartment,58.48 L ,59.40 L,12.99911,77.7526073,POINT (77.75260729999999 12.99911)
SMR Vinay Estella bangalore,16.80 L,600 sq.ft,1 BHK Apartment,16.80 L,0,13.0840921,77.5413269,POINT (77.5413269 13.0840921)
SNN Raj Etternia bangalore,31.11 L -43.43 L,565 sq.ft,1 BHK Apartment,31.11 L ,43.43 L,12.8905902,77.6681103,POINT (77.6681103 12.8905902)
SNN Raj Grandeur bangalore,1.63 Cr -1.84 Cr,3010 sq.ft,4 BHK Apartment,1.63 Cr ,1.84 Cr,12.9025603,77.6247599,POINT (77.6247599 12.9025603)
SNN Raj GreenBay bangalore,54 L -72.44 L,1199 sq.ft,2 BHK Apartment,54 L ,72.44 L,12.852932,77.67846899999999,POINT (77.67846899999999 12.852932)
SNN Raj Serenity Phase II bangalore,38.19 L -58 L,900-1150 sq.ft,2 BHK Apartment,38.19 L ,58 L,12.852932,77.67846899999999,POINT (77.67846899999999 12.852932)
SNN Raj Serenity bangalore,30.54 L -41.14 L,630 sq.ft,1 BHK Apartment,30.54 L ,41.14 L,12.8589085,77.613768,POINT (77.61376799999999 12.8589085)
SNR Windmill bangalore,51.84 L,1152 sq.ft,2 BHK Apartment,51.84 L,0,12.855583,77.597298,POINT (77.59729799999999 12.855583)
SOBHA Arena - The Park bangalore,74 L -1.02 Cr,1296-1306 sq.ft,2 BHK Apartment,74 L ,1.02 Cr,12.8642033,77.53674,POINT (77.53673999999999 12.8642033)
SRC blue bells bangalore,32.56 L -39.99 L,972-988 sq.ft,2 BHK Apartment,32.56 L ,39.99 L,12.8328724,77.68971239999999,POINT (77.68971239999999 12.8328724)
SRK The Villagio bangalore,49.27 L -52.87 L,1095-1175 sq.ft,2 BHK Apartment,49.27 L ,52.87 L,13.0080164,77.7621594,POINT (77.7621594 13.0080164)
SS Vrudhi bangalore,65.61 L -71.28 L,1215 sq.ft,2 BHK Apartment,65.61 L ,71.28 L,12.8623542,77.52866829999999,POINT (77.52866829999999 12.8623542)
SSB Urban Lotus bangalore,35.07 L -45.21 L,1063-1256 sq.ft,2 BHK Apartment,35.07 L ,45.21 L,12.8671125,77.6862204,POINT (77.6862204 12.8671125)
SSVR Fairy Bells bangalore,60.84 L -73 L,1170-1200 sq.ft,2 BHK Apartment,60.84 L ,73 L,13.0713565,77.58518169999999,POINT (77.58518169999999 13.0713565)
SSVR Iris bangalore,27.49 L -29.06 L,733-775 sq.ft,1 BHK Apartment,27.49 L ,29.06 L,12.9401171,77.7336308,POINT (77.7336308 12.9401171)
SV Lakshmi Nivas bangalore,74.89 L -85 L,1368 sq.ft,2 BHK Apartment,74.89 L ,85 L,13.0395202,77.6621751,POINT (77.6621751 13.0395202)
SV Spring Woods bangalore,1.40 Cr -1.70 Cr,1970 sq.ft,3 BHK Apartment,1.40 Cr ,1.70 Cr,12.8634456,77.53214299999999,POINT (77.53214299999999 12.8634456)
SVR Green Woods bangalore,61.82 L -82.06 L,1239-1246 sq.ft,2 BHK Apartment,61.82 L ,82.06 L,12.9478872,77.7224729,POINT (77.7224729 12.9478872)
SVS Trend Square Precioso bangalore,2.27 Cr -3.10 Cr,3162-3309 sq.ft,4 BHK Villa,2.27 Cr ,3.10 Cr,13.0345488,77.66741549999999,POINT (77.66741549999999 13.0345488)
Saf Snowdrops bangalore,33 L -38.77 L,1000-1175 sq.ft,2 BHK Apartment,33 L ,38.77 L,12.8921607,77.563372,POINT (77.563372 12.8921607)
Sai Ashirwad Natures Nest bangalore,53.88 L -58.54 L,1200-1304 sq.ft,2 BHK Apartment,53.88 L ,58.54 L,12.835969,77.69162299999999,POINT (77.69162299999999 12.835969)
Sai Charan Hill View bangalore,93.72 L -1.20 Cr,1320 sq.ft,2 BHK Apartment,93.72 L ,1.20 Cr,12.8904203,77.5148337,POINT (77.5148337 12.8904203)
Sai Purvi Symphony bangalore,51.08 L -56.28 L,1215-1345 sq.ft,2 BHK Apartment,51.08 L ,56.28 L,12.9194265,77.736761,POINT (77.736761 12.9194265)
Sai Sowbagya bangalore,54.17 L -62.53 L,985-1137 sq.ft,2 BHK Apartment,54.17 L ,62.53 L,12.9081743,77.68355129999999,POINT (77.68355129999999 12.9081743)
Sai Vrushabadri Towers bangalore,48 L,1035 sq.ft,1 BHK Apartment,48 L,0,12.9885109,77.7817547,POINT (77.78175469999999 12.9885109)
Saideep Hulas bangalore,63.09 L,905 sq.ft,1 BHK Apartment,63.09 L,0,13.0416462,77.74364489999999,POINT (77.74364489999999 13.0416462)
Saiven Siesta bangalore,65 L,705 sq.ft,0.5 BHK Apartment,65 L,0,12.8888172,77.7683326,POINT (77.76833259999999 12.8888172)
Saket Callipolis bangalore,71.61 L -90 L,1302-1369 sq.ft,2 BHK Apartment,71.61 L ,90 L,12.9095176,77.68542,POINT (77.68541999999999 12.9095176)
Salarpuria Sattva Anugraha bangalore,49.95 L -59.80 L,1110-1150 sq.ft,2 BHK Apartment,49.95 L ,59.80 L,12.9827531,77.5186374,POINT (77.5186374 12.9827531)
Salarpuria Sattva Aspire bangalore,60 L,613 sq.ft,1 BHK Apartment,60 L,0,13.083073,77.6543973,POINT (77.6543973 13.083073)
Salarpuria Sattva Cadenza bangalore,39 L -41.65 L,755 sq.ft,1 BHK Apartment,39 L ,41.65 L,12.889441,77.64022109999999,POINT (77.64022109999999 12.889441)
Salarpuria Sattva Celesta bangalore,89 L -1.23 Cr,1716-1873 sq.ft,3 BHK Apartment,89 L ,1.23 Cr,13.018456,77.703632,POINT (77.703632 13.018456)
Salarpuria Sattva Divinity bangalore,70.09 L -8.50 Cr,1180 sq.ft,2 BHK Apartment,70.09 L ,8.50 Cr,12.9403192,77.5252055,POINT (77.5252055 12.9403192)
Salarpuria Sattva East Crest bangalore,29.84 L -39.47 L,598 sq.ft,1 BHK Apartment,29.84 L ,39.47 L,13.043223,77.7482414,POINT (77.7482414 13.043223)
Salarpuria Sattva Greenage Phase II bangalore,99.53 L -1.30 Cr,1345 sq.ft,2 BHK Apartment,99.53 L ,1.30 Cr,12.9024372,77.6313115,POINT (77.6313115 12.9024372)
Salarpuria Sattva Greenage bangalore,1 Cr -1.43 Cr,1345 sq.ft,2 BHK Apartment,1 Cr ,1.43 Cr,12.9024372,77.6313115,POINT (77.6313115 12.9024372)
Salarpuria Sattva Kings Domain bangalore,28.53 L,650 sq.ft,1 BHK Apartment,28.53 L,0,12.9918038,77.66070409999999,POINT (77.66070409999999 12.9918038)
Salarpuria Sattva Laurel Heights bangalore,55.76 L -67 L,992-1027 sq.ft,2 BHK Apartment,55.76 L ,67 L,13.060724,77.507677,POINT (77.507677 13.060724)
Salarpuria Sattva Magnificia bangalore,1.80 Cr -3.35 Cr,2186-2425 sq.ft,3 BHK Apartment,1.80 Cr ,3.35 Cr,12.9962293,77.6689762,POINT (77.6689762 12.9962293)
Salarpuria Sattva Misty Charm bangalore,31 L -40 L,551-605 sq.ft,1 BHK Apartment,31 L ,40 L,12.8638771,77.5432976,POINT (77.5432976 12.8638771)
Salarpuria Sattva Northland bangalore,1.88 Cr,1541 sq.ft,2 BHK Apartment,1.88 Cr,0,13.082285,77.654127,POINT (77.654127 13.082285)
Salarpuria Sattva Opus bangalore,32.50 L,675 sq.ft,1 BHK Apartment,32.50 L,0,13.0445527,77.5088305,POINT (77.5088305 13.0445527)
Salarpuria Sattva Senorita bangalore,1.40 Cr,1287-1355 sq.ft,2 BHK Apartment,1.40 Cr,0,12.9105194,77.6825606,POINT (77.6825606 12.9105194)
Salarpuria Sattva Serene Life bangalore,86.21 L -89.50 L,1395-1450 sq.ft,2 BHK Apartment,86.21 L ,89.50 L,13.1883652,77.65808760000002,POINT (77.65808760000002 13.1883652)
Samhita Elite bangalore,77.56 L -78.26 L,1400 sq.ft,2 BHK Apartment,77.56 L ,78.26 L,13.0351177,77.70421859999999,POINT (77.70421859999999 13.0351177)
Samruddhi Winter Green bangalore,1 Cr,1400 sq.ft,2 BHK Apartment,1 Cr,0,12.9389418,77.7129508,POINT (77.7129508 12.9389418)
Sanjana Supreme bangalore,33.21 L -46.53 L,863-1209 sq.ft,2 BHK Apartment,33.21 L ,46.53 L,12.8821041,77.6198368,POINT (77.6198368 12.8821041)
Sansidh Galaxy bangalore,1.67 Cr -1.72 Cr,2502-2576 sq.ft,4 BHK Apartment,1.67 Cr ,1.72 Cr,13.0658986,77.62399860000001,POINT (77.62399860000001 13.0658986)
Sanvi Sankalpam bangalore,37.24 L -37.24 L,702 sq.ft,1 BHK Apartment,37.24 L ,37.24 L,12.9697226,77.7713555,POINT (77.7713555 12.9697226)
Sanvi Sunrise bangalore,61.51 L -73.72 L,1295 sq.ft,2 BHK Apartment,61.51 L ,73.72 L,12.9732444,77.677601,POINT (77.677601 12.9732444)
Saran Mulberry Woods bangalore,1.70 Cr -2.15 Cr,3150-3255 sq.ft,4 BHK Apartment,1.70 Cr ,2.15 Cr,12.9059509,77.7038144,POINT (77.7038144 12.9059509)
Saranya Soham bangalore,38.64 L -52.67 L,1104-1211 sq.ft,2 BHK Apartment,38.64 L ,52.67 L,12.9492971,77.7166496,POINT (77.7166496 12.9492971)
Saranya Sreshta bangalore,54.70 L -62.02 L,1085-1210 sq.ft,2 BHK Apartment,54.70 L ,62.02 L,12.9671661,77.7570509,POINT (77.7570509 12.9671661)
Saroj Harmony bangalore,4 Cr,3525 sq.ft,3 BHK Villa,4 Cr,0,12.9313675,77.7418874,POINT (77.7418874 12.9313675)
Sashank Aavaas bangalore,44.19 L -59.04 L,1030-1420 sq.ft,2 BHK Apartment,44.19 L ,59.04 L,13.1041866,77.5473949,POINT (77.5473949 13.1041866)
Sashank Advaith bangalore,32.75 L,708 sq.ft,1 BHK Apartment,32.75 L,0,12.8917332,77.6816863,POINT (77.6816863 12.8917332)
Sekhar Casa Bianca bangalore,45.75 L -74 L,1090-1309 sq.ft,2 BHK Apartment,45.75 L ,74 L,12.9387133,77.7162381,POINT (77.7162381 12.9387133)
Sekhar Olympus bangalore,68 L -78 L,1156-1242 sq.ft,2 BHK Apartment,68 L ,78 L,13.0311397,77.6579922,POINT (77.6579922 13.0311397)
Shanders Dwellington bangalore,1.35 Cr,1930 sq.ft,2 BHK Apartment,1.35 Cr,0,12.8476197,77.6881725,POINT (77.68817249999999 12.8476197)
Shapoorji Pallonji ParkWest Mahogany bangalore,1.18 Cr,1411 sq.ft,2 BHK Apartment,1.18 Cr,0,12.963803,77.5610241,POINT (77.5610241 12.963803)
Shell North Gate bangalore,49.16 L -59.65 L,1090-1315 sq.ft,2 BHK Apartment,49.16 L ,59.65 L,13.0669963,77.6468544,POINT (77.6468544 13.0669963)
Shilpa Dacha bangalore,61.29 L -62.40 L,1302-1309 sq.ft,2 BHK Apartment,61.29 L ,62.40 L,12.915819,77.66976079999999,POINT (77.66976079999999 12.915819)
Shoban Silver Domicile bangalore,1.39 Cr -1.63 Cr,1545-1750 sq.ft,3 BHK Apartment,1.39 Cr ,1.63 Cr,13.0626596,77.62788309999999,POINT (77.62788309999999 13.0626596)
Shravanthi Oakridge bangalore,1.50 Cr -2.02 Cr,2591-3518 sq.ft,4 BHK Villa,1.50 Cr ,2.02 Cr,12.8720988,77.52955089999999,POINT (77.52955089999999 12.8720988)
Shri Balaji Ocean bangalore,31.50 L -46.03 L,967-1109 sq.ft,2 BHK Apartment,31.50 L ,46.03 L,12.839761,77.72563219999999,POINT (77.72563219999999 12.839761)
Shri Balaji Sarovar bangalore,34.96 L -46.50 L,795-1100 sq.ft,2 BHK Apartment,34.96 L ,46.50 L,12.9769223,77.73338179999999,POINT (77.73338179999999 12.9769223)
Shri Sai Mounika Park Vesta bangalore,70 L -1.01 Cr,1279-1483 sq.ft,2 BHK Apartment,70 L ,1.01 Cr,13.0415694,77.6487652,POINT (77.6487652 13.0415694)
Shriram Blue bangalore,70 L -70.28 L,1245-1250 sq.ft,2 BHK Apartment,70 L ,70.28 L,13.0166354,77.7281167,POINT (77.7281167 13.0166354)
Shriram Chirping Woods Apartment bangalore,41.70 L,695 sq.ft,1 BHK Apartment,41.70 L,0,12.9090034,77.6688901,POINT (77.6688901 12.9090034)
Shriram Codename Break Free bangalore,35 L -3.91 Cr,850 sq.ft,2 BHK Apartment,35 L ,3.91 Cr,12.832357,77.7028035,POINT (77.7028035 12.832357)
Shriram Greenfield Phase 1 bangalore,38.14 L -75 L,935-1065 sq.ft,2 BHK Apartment,38.14 L ,75 L,13.0708496,77.75127239999999,POINT (77.75127239999999 13.0708496)
Shriram Greenfield Phase 2 bangalore,38.14 L -56 L,935-1065 sq.ft,2 BHK Apartment,38.14 L ,56 L,13.0708496,77.75127239999999,POINT (77.75127239999999 13.0708496)
Shriram Luxor bangalore,56.64 L -80.06 L,1195 sq.ft,2 BHK Apartment,56.64 L ,80.06 L,13.085249,77.6549154,POINT (77.65491539999999 13.085249)
Shriram Sameeksha bangalore,29.40 L -35 L,700-800 sq.ft,1 BHK Apartment,29.40 L ,35 L,13.0721162,77.5348332,POINT (77.53483319999999 13.0721162)
Shriram Signia bangalore,1.60 Cr -2.97 Cr,1847-3303 sq.ft,3 BHK Apartment,1.60 Cr ,2.97 Cr,12.8391167,77.6563997,POINT (77.65639969999999 12.8391167)
Shriram Southern Crest bangalore,85.80 L -1.08 Cr,1300 sq.ft,2 BHK Apartment,85.80 L ,1.08 Cr,12.9058075,77.5723024,POINT (77.5723024 12.9058075)
Shriram Suhaana bangalore,39 L,740 sq.ft,0.5 BHK Apartment,39 L,0,13.1335429,77.5729612,POINT (77.57296119999999 13.1335429)
Shriram Summitt bangalore,41.76 L -54 L,714 sq.ft,1 BHK Apartment,41.76 L ,54 L,12.8360678,77.6672418,POINT (77.6672418 12.8360678)
Sidvin Grace Apartment bangalore,52.69 L -66.70 L,1171-1336 sq.ft,2 BHK Apartment,52.69 L ,66.70 L,12.960705,77.4971036,POINT (77.4971036 12.960705)
Silverwood Regency bangalore,4.30 Cr -9.51 Cr,7377-7523 sq.ft,4 BHK Villa,4.30 Cr ,9.51 Cr,12.9111022,77.6777582,POINT (77.6777582 12.9111022)
Sipani Bliss 1 bangalore,76 L,1272 sq.ft,2 BHK Apartment,76 L,0,12.7808199,77.72399589999999,POINT (77.72399589999999 12.7808199)
Sipani Bliss 2 bangalore,79 L -96 L,1216 sq.ft,2 BHK Apartment,79 L ,96 L,12.7808199,77.72399589999999,POINT (77.72399589999999 12.7808199)
Sipani Jardin bangalore,12.96 L -16.33 L,480-605 sq.ft,1 BHK Apartment,12.96 L ,16.33 L,12.7780888,77.7296121,POINT (77.7296121 12.7780888)
Sipani Wattle Grove bangalore,76.14 L -98 L,1174-1197 sq.ft,2 BHK Apartment,76.14 L ,98 L,12.940446,77.623403,POINT (77.623403 12.940446)
Sizzle Gold Coast bangalore,44.65 L -65 L,950-1130 sq.ft,2 BHK Apartment,44.65 L ,65 L,13.0161167,77.6599252,POINT (77.6599252 13.0161167)
Skanda Avani C99 bangalore,1.51 Cr -1.97 Cr,2900 sq.ft,3 BHK Villa,1.51 Cr ,1.97 Cr,12.90952,77.724401,POINT (77.724401 12.90952)
Skanda Nirvana bangalore,6.21 Cr -11 Cr,2760-3300 sq.ft,3 BHK Apartment,6.21 Cr ,11 Cr,12.9340795,77.7059496,POINT (77.7059496 12.9340795)
Sky Court bangalore,1.44 Cr,3009 sq.ft,3 BHK Apartment,1.44 Cr,0,12.9418086,77.7023823,POINT (77.7023823 12.9418086)
Skylark Dasos bangalore,25.77 L -30.13 L,663 sq.ft,1 BHK Apartment,25.77 L ,30.13 L,13.062335,77.665454,POINT (77.665454 13.062335)
Skylark Ithaca bangalore,21.77 L -44 L,605-624 sq.ft,1 BHK Apartment,21.77 L ,44 L,13.0124263,77.73553369999999,POINT (77.73553369999999 13.0124263)
Skylark Royaume bangalore,3.83 Cr -4.86 Cr,3195-3295 sq.ft,3 BHK Apartment,3.83 Cr ,4.86 Cr,12.8661023,77.66587799999999,POINT (77.66587799999999 12.8661023)
Slv Parkview bangalore,89 L,1225-1260 sq.ft,3 BHK Apartment,89 L,0,13.0459165,77.5419656,POINT (77.5419656 13.0459165)
Smart Homz Blue Bells bangalore,41.47 L -51.69 L,684-810 sq.ft,1 BHK Apartment,41.47 L ,51.69 L,12.7851117,77.7770002,POINT (77.7770002 12.7851117)
Sobha Arena - The Plaza bangalore,80.34 L -1.07 Cr,1296-1306 sq.ft,2 BHK Apartment,80.34 L ,1.07 Cr,12.8642033,77.53674,POINT (77.53673999999999 12.8642033)
Sobha Avenue bangalore,89.02 L,1365 sq.ft,2 BHK Apartment,89.02 L,0,13.0287887,77.74967880000001,POINT (77.74967880000001 13.0287887)
Sobha Cedar bangalore,96.51 L,1411 sq.ft,2 BHK Apartment,96.51 L,0,12.8779199,77.52976389999999,POINT (77.52976389999999 12.8779199)
Sobha City Casa Paradiso bangalore,43.21 L -53.05 L,1054-1294 sq.ft,2 BHK Apartment,43.21 L ,53.05 L,13.0761452,77.6406964,POINT (77.6406964 13.0761452)
Sobha City Casa Serenita bangalore,65 L -71.97 L,1305-1445 sq.ft,2 BHK Apartment,65 L ,71.97 L,13.0769388,77.6394475,POINT (77.6394475 13.0769388)
Sobha City Santorini bangalore,13.52 L -30.58 L,520-645 sq.ft,1 BHK Apartment,13.52 L ,30.58 L,13.0760867,77.6364212,POINT (77.6364212 13.0760867)
Sobha City bangalore,75 L -1.38 Cr,2005-2100 sq.ft,2 BHK Apartment,75 L ,1.38 Cr,13.077151,77.6382007,POINT (77.6382007 13.077151)
Sobha Clovelly bangalore,37.76 L,821 sq.ft,1 BHK Apartment,37.76 L,0,12.911386,77.5559079,POINT (77.55590789999999 12.911386)
Sobha Daffodil bangalore,45.07 L -54 L,1252-1313 sq.ft,2 BHK Apartment,45.07 L ,54 L,12.9013076,77.65341699999999,POINT (77.65341699999999 12.9013076)
Sobha Daisy bangalore,1.35 Cr -1.65 Cr,1705-1810 sq.ft,3 BHK Apartment,1.35 Cr ,1.65 Cr,12.9282006,77.6680634,POINT (77.66806339999999 12.9282006)
Sobha Dream Acres bangalore,33.47 L -55.94 L,656-936 sq.ft,1 BHK Apartment,33.47 L ,55.94 L,12.9391021,77.7376639,POINT (77.7376639 12.9391021)
Sobha Dream Gardens bangalore,30.41 L -38.50 L,981-1188 sq.ft,2 BHK Apartment,30.41 L ,38.50 L,13.0968857,77.647408,POINT (77.647408 13.0968857)
Sobha Eternia bangalore,1.04 Cr -1.22 Cr,1730-1775 sq.ft,3 BHK Apartment,1.04 Cr ,1.22 Cr,12.9035751,77.6649043,POINT (77.6649043 12.9035751)
Sobha HRC Pristine bangalore,68.56 L -1.24 Cr,2100-2307 sq.ft,3 BHK Villa,68.56 L ,1.24 Cr,13.0679382,77.6059904,POINT (77.6059904 13.0679382)
Sobha Habitech bangalore,87.99 L -1.09 Cr,1342-1380 sq.ft,2 BHK Apartment,87.99 L ,1.09 Cr,12.9828292,77.7552035,POINT (77.75520349999999 12.9828292)
Sobha Heritage bangalore,87 L -1.25 Cr,1304-1434 sq.ft,2 BHK Apartment,87 L ,1.25 Cr,12.9312565,77.5290121,POINT (77.5290121 12.9312565)
Sobha Indraprastha bangalore,42.74 L -55.96 L,745-920 sq.ft,2 BHK Apartment,42.74 L ,55.96 L,12.9811535,77.5634417,POINT (77.5634417 12.9811535)
Sobha Iris bangalore,77 L -89.88 L,1400-1530 sq.ft,3 BHK Apartment,77 L ,89.88 L,12.9328719,77.68466950000001,POINT (77.68466950000001 12.9328719)
Sobha Jasmine bangalore,40.40 L -45.20 L,1010-1130 sq.ft,2 BHK Apartment,40.40 L ,45.20 L,12.9263467,77.6680634,POINT (77.66806339999999 12.9263467)
Sobha Lake Gardens bangalore,42.84 L -51.46 L,765-919 sq.ft,1 BHK Apartment,42.84 L ,51.46 L,13.0191276,77.7241543,POINT (77.7241543 13.0191276)
Sobha Lifestyle Legacy bangalore,60 L -85 L,1500 sq.ft,2 BHK Apartment,60 L ,85 L,13.231919,77.674463,POINT (77.674463 13.231919)
Sobha Marvella bangalore,36.54 L -47.97 L,937-1230 sq.ft,2 BHK Apartment,36.54 L ,47.97 L,12.9267833,77.6726791,POINT (77.6726791 12.9267833)
Sobha Morzaria Grandeur Phase II bangalore,46.60 L -52.65 L,1195-1350 sq.ft,2 BHK Apartment,46.60 L ,52.65 L,12.9339158,77.6019266,POINT (77.6019266 12.9339158)
Sobha Morzaria Grandeur bangalore,1.33 Cr -1.68 Cr,1920-2100 sq.ft,3 BHK Apartment,1.33 Cr ,1.68 Cr,12.9339158,77.6019266,POINT (77.6019266 12.9339158)
Sobha Onyx bangalore,76.18 L -89.41 L,1180-1385 sq.ft,2 BHK Apartment,76.18 L ,89.41 L,12.9245191,77.6528063,POINT (77.65280629999999 12.9245191)
Sobha Palladian bangalore,78 L -90 L,1300-1440 sq.ft,2 BHK Apartment,78 L ,90 L,12.9541525,77.68938279999999,POINT (77.68938279999999 12.9541525)
Sobha Palm Court bangalore,59 L,1086 sq.ft,1 BHK Apartment,59 L,0,13.1041146,77.60629639999999,POINT (77.60629639999999 13.1041146)
Sobha Rajvillas bangalore,1 Cr,1000 sq.ft,2 BHK Apartment,1 Cr,0,12.9785119,77.5631574,POINT (77.56315739999999 12.9785119)
Sobha Royal Pavilion bangalore,80.60 L -1.21 Cr,1302-1409 sq.ft,2 BHK Apartment,80.60 L ,1.21 Cr,12.8962858,77.702125,POINT (77.702125 12.8962858)
Sobha Ruby bangalore,58.69 L -85 L,1120-1305 sq.ft,2 BHK Apartment,58.69 L ,85 L,13.0446521,77.5000402,POINT (77.5000402 13.0446521)
Sobha Silicon Oasis bangalore,85.62 L -1.20 Cr,1365-1431 sq.ft,2 BHK Apartment,85.62 L ,1.20 Cr,12.867993,77.6612248,POINT (77.6612248 12.867993)
Sobha Tulip bangalore,80 L -97.74 L,1175-1320 sq.ft,2 BHK Apartment,80 L ,97.74 L,12.8984206,77.5855194,POINT (77.5855194 12.8984206)
